Timestamp,Latitude,Longitude,Altitude,Plane Roll,Plane Pitch,Plane Yaw,Gimbal Roll,Gimbal Pitch,Gimbal Yaw,Gimbal Delta Roll,Gimbal Delta Pitch,Gimbal Delta Yaw,X in frame,Y in frame,Estimated X,Estimated Y,Estimated Z
2811289,0,0,0,0.0132731,0.0334766,0.597249,-0.010472,-0.865683,-0.00523599,-0.0102537,-0.865754,-0.0080541,256,378,2.72031,-0.765001,0
3212091,0,0,0,0.0131897,0.0333244,0.602738,-0.010472,-0.87441,0,-0.0101703,-0.874328,-0.00830775,256,377,2.6764,-0.748504,0
3519415,0,0,0,0.0131897,0.0333244,0.602738,-0.010472,-0.87441,0,-0.0101703,-0.874328,-0.00830775,256,375,2.7028,-0.750923,0
4114448,0,0,0,0.0132458,0.0333645,0.608341,-0.0122173,-0.867429,-0.00349066,-0.0119717,-0.867387,-0.0174007,256,371,2.80132,-0.764844,0
4456542,0,0,0,0.013343,0.033338,0.60937,-0.0122173,-0.865683,-0.00349066,-0.0120689,-0.865615,-0.0184306,255,373,2.78659,-0.775834,0
4755120,0,0,0,0.0137591,0.0333893,0.611596,-0.0122173,-0.865683,-0.00349066,-0.012485,-0.865666,-0.0206564,256,374,2.77326,-0.763509,0
6284825,0,0,0,0.015136,0.033702,0.613337,-0.015708,-0.886627,0.0279253,-0.0173526,-0.886923,0.00901897,257,375,2.6323,-0.660774,0
7523493,0,0,0,0.015136,0.033702,0.613337,-0.0122173,-0.942478,0.0401426,-0.0138619,-0.942774,0.0212363,256,378,2.22741,-0.643695,0
8111535,0,0,0,0.0126354,0.0332961,0.619069,-0.0122173,-0.945968,0.0418879,-0.0113613,-0.945858,0.0172495,256,379,2.19423,-0.628729,0
8395921,0,0,0,0.0126354,0.0332961,0.619069,-0.0122173,-0.947714,0.0418879,-0.0113613,-0.947604,0.0172495,253,377,2.20865,-0.666058,0
12000806,0,0,0,0.0124397,0.0334511,0.62381,-0.00698132,-1.00531,0.0453786,-0.00592965,-1.00535,0.0159994,244,332,2.41468,-0.798739,0
12269032,0,0,0,0.0125206,0.0334996,0.626028,-0.00698132,-1.0088,0.0471239,-0.00601051,-1.00889,0.0155267,244,334,2.36617,-0.793606,0
12545243,0,0,0,0.0124699,0.0335149,0.625774,-0.00698132,-1.01055,0.0471239,-0.0059598,-1.01065,0.0157804,245,330,2.4068,-0.782944,0
12808863,0,0,0,0.0124699,0.0335149,0.625774,-0.00698132,-1.01229,0.0471239,-0.0059598,-1.0124,0.0157804,245,330,2.39506,-0.782851,0
13313743,0,0,0,0.0123469,0.0335233,0.625418,-0.00698132,-1.01753,0.0488692,-0.00583683,-1.01764,0.0178817,245,329,2.37459,-0.778502,0
13620827,0,0,0,0.0123469,0.0335233,0.625418,-0.00698132,-1.02276,0.0488692,-0.00583683,-1.02288,0.0178817,243,291,2.86296,-0.822937,0
13889846,0,0,0,0.0123469,0.0335233,0.625418,-0.00349066,-1.03498,0.0523599,-0.00234617,-1.0351,0.0213724,242,290,2.79792,-0.827738,0
14148417,0,0,0,0.0123469,0.0335233,0.625418,-0.00698132,-1.03673,0.0541052,-0.00583683,-1.03684,0.0231177,242,289,2.79742,-0.820894,0
14402599,0,0,0,0.0123469,0.0335233,0.625418,-0.00349066,-1.03673,0.0558505,-0.00234617,-1.03684,0.024863,242,289,2.80274,-0.818435,0
14950078,0,0,0,0.0115999,0.0336399,0.621014,-0.00349066,-1.04022,0.0575959,-0.00159918,-1.04045,0.0310121,241,286,2.82345,-0.823832,0
15259957,0,0,0,0.0115999,0.0336399,0.621014,-0.00349066,-1.04545,0.0575959,-0.00159918,-1.04569,0.0310121,242,280,2.87167,-0.81257,0
15561363,0,0,0,0.0115999,0.0336399,0.621014,-0,-1.04894,0.0575959,0.00189148,-1.04918,0.0310121,241,275,2.92379,-0.828719,0
16497630,0,0,0,0.0115999,0.0336399,0.621014,-0,-1.05418,0.0593412,0.00189148,-1.05441,0.0327574,240,274,2.90303,-0.836642,0
17578123,0,0,0,0.0118355,0.0337525,0.622093,-0,-1.05243,0.0593412,0.00165594,-1.05278,0.0316791,240,274,2.91539,-0.838008,0
17869778,0,0,0,0.0118355,0.0337525,0.622093,-0,-1.05243,0.0593412,0.00165594,-1.05278,0.0316791,240,273,2.92993,-0.838299,0
18133272,0,0,0,0.0118355,0.0337525,0.622093,-0,-1.05243,0.0610865,0.00165594,-1.05278,0.0334244,241,270,2.97442,-0.820984,0
18392215,0,0,0,0.0106572,0.0335863,0.619596,-0,-1.05069,0.0610865,0.00283416,-1.05087,0.0359215,241,269,3.00244,-0.815066,0
18660708,0,0,0,0.010558,0.0335811,0.619017,-0,-1.05243,0.0610865,0.00293339,-1.05261,0.0365005,240,266,3.0349,-0.828306,0
18917085,0,0,0,0.0107086,0.0335888,0.619153,0.00349066,-1.05243,0.0610865,0.00627345,-1.05262,0.0363641,240,266,3.03891,-0.830385,0
19578679,0,0,0,0.0108683,0.033581,0.619671,0.00698132,-1.05418,0.0610865,0.00960445,-1.05435,0.0358457,240,267,3.01542,-0.832155,0
19843078,0,0,0,0.0108683,0.033581,0.619671,0.010472,-1.05243,0.0593412,0.0130951,-1.05261,0.0341004,240,267,3.03072,-0.838771,0
20095816,0,0,0,0.0116894,0.0336513,0.620741,0.00698132,-1.05243,0.0593412,0.00878334,-1.05268,0.0330303,239,267,3.02705,-0.855101,0
20355242,0,0,0,0.0118273,0.0336405,0.624176,0.00698132,-1.05243,0.0575959,0.00864546,-1.05267,0.0278507,240,266,3.03931,-0.847883,0
20613758,0,0,0,0.0118273,0.0336405,0.624176,0.00698132,-1.05243,0.0575959,0.00864546,-1.05267,0.0278507,240,266,3.03931,-0.847883,0
21159038,0,0,0,0.0115817,0.0336543,0.626118,0.010472,-1.05243,0.0436332,0.0123817,-1.05268,0.0119458,241,266,3.03041,-0.876015,0
21425604,0,0,0,0.0116699,0.033738,0.623081,0.010472,-1.05243,0.0401426,0.0122935,-1.05277,0.0114916,241,266,3.02728,-0.88705,0
21680732,0,0,0,0.0116699,0.033738,0.623081,0.010472,-1.05243,0.0331613,0.0122935,-1.05277,0.00451032,241,267,3.00613,-0.907194,0
21930234,0,0,0,0.0117488,0.0337794,0.623655,0.010472,-1.05243,0.0314159,0.0122146,-1.05281,0.00219105,241,266,3.01925,-0.913287,0
22183056,0,0,0,0.0117488,0.0337794,0.623655,0.010472,-1.05243,0.0314159,0.0122146,-1.05281,0.00219105,241,266,3.01925,-0.913287,0
24165458,0,0,0,0.0123784,0.0339655,0.629895,0.015708,-1.0664,0.0296706,0.0168209,-1.06696,-0.00579387,245,265,2.93417,-0.867192,0
24464533,0,0,0,0.0123784,0.0339655,0.629895,0.0122173,-1.06989,0.0331613,0.0133303,-1.07045,-0.00230321,247,265,2.90709,-0.828847,0
27549279,0,0,0,0.0122538,0.0343372,0.617397,0.015708,-1.07163,0.0366519,0.0169455,-1.07256,0.0136857,248,264,2.91514,-0.807096,0
27888882,0,0,0,0.0122538,0.0343372,0.617397,0.015708,-1.07163,0.0366519,0.0169455,-1.07256,0.0136857,248,263,2.92975,-0.807371,0
28156032,0,0,0,0.0122538,0.0343372,0.617397,0.015708,-1.07163,0.0366519,0.0169455,-1.07256,0.0136857,248,263,2.92975,-0.807371,0
28623771,0,0,0,0.0129472,0.0344225,0.616462,0.015708,-1.07163,0.0366519,0.0162522,-1.07265,0.01462,246,255,3.04885,-0.84005,0
28897512,0,0,0,0.0129472,0.0344225,0.616462,0.015708,-1.07163,0.0349066,0.0162522,-1.07265,0.0128746,247,253,3.07649,-0.83267,0
29167040,0,0,0,0.0129859,0.0344711,0.615423,0.015708,-1.07163,0.0366519,0.0162135,-1.0727,0.0156595,245,253,3.07938,-0.854253,0
29440095,0,0,0,0.0129859,0.0344711,0.615423,0.015708,-1.07163,0.0366519,0.0162135,-1.0727,0.0156595,246,253,3.07865,-0.84098,0
29705050,0,0,0,0.0129859,0.0344711,0.615423,0.0122173,-1.07338,0.0383972,0.0127228,-1.07444,0.0174048,245,254,3.04934,-0.847554,0
29972861,0,0,0,0.0129859,0.0344711,0.615423,0.015708,-1.07512,0.0383972,0.0162135,-1.07619,0.0174048,245,253,3.05525,-0.848186,0
30286946,0,0,0,0.0132668,0.0343815,0.618425,0.015708,-1.07512,0.0383972,0.0159326,-1.0761,0.0144026,245,253,3.0551,-0.84957,0
30554105,0,0,0,0.0132668,0.0343815,0.618425,0.0122173,-1.07687,0.0401426,0.0124419,-1.07784,0.0161479,245,253,3.04,-0.8433,0
30852703,0,0,0,0.0132668,0.0343815,0.618425,0.015708,-1.07861,0.0383972,0.0159326,-1.07959,0.0144026,245,253,3.02957,-0.848778,0
31143858,0,0,0,0.0132668,0.0343815,0.618425,0.015708,-1.07861,0.0401426,0.0159326,-1.07959,0.0161479,244,251,3.06156,-0.857396,0
31424385,0,0,0,0.0132668,0.0343815,0.618425,0.015708,-1.07687,0.0418879,0.0159326,-1.07784,0.0178933,245,251,3.07508,-0.839273,0
31713176,0,0,0,0.0132668,0.0343815,0.618425,0.015708,-1.07861,0.0418879,0.0159326,-1.07959,0.0178933,244,251,3.06306,-0.852166,0
31986160,0,0,0,0.0132668,0.0343815,0.618425,0.0191986,-1.07687,0.0418879,0.0194232,-1.07784,0.0178933,244,250,3.0947,-0.853325,0
32260777,0,0,0,0.0132668,0.0343815,0.618425,0.0191986,-1.07861,0.0418879,0.0194232,-1.07959,0.0178933,245,250,3.08101,-0.839679,0
32541524,0,0,0,0.0132668,0.0343815,0.618425,0.0191986,-1.07687,0.0401426,0.0194232,-1.07784,0.0161479,244,250,3.0932,-0.85861,0
32813875,0,0,0,0.0132668,0.0343815,0.618425,0.015708,-1.07861,0.0401426,0.0159326,-1.07959,0.0161479,244,250,3.07648,-0.857681,0
33349665,0,0,0,0.0132668,0.0343815,0.618425,0.0244346,-1.08036,0.0296706,0.0246592,-1.08133,0.00567597,244,250,3.06414,-0.890037,0
33622672,0,0,0,0.0126721,0.0343231,0.615903,0.0191986,-1.07687,0.0366519,0.020018,-1.07779,0.0151792,245,250,3.0897,-0.85265,0
33893507,0,0,0,0.0126721,0.0343231,0.615903,0.0226893,-1.07687,0.0366519,0.0235086,-1.07779,0.0151792,244,250,3.09437,-0.866467,0
34165290,0,0,0,0.0128534,0.0344602,0.617388,0.0191986,-1.07687,0.0401426,0.0198366,-1.07792,0.0171854,245,250,3.09258,-0.843042,0
34441002,0,0,0,0.0128534,0.0344602,0.617388,0.0191986,-1.07861,0.0401426,0.0198366,-1.07967,0.0171854,244,250,3.08056,-0.855927,0
34712111,0,0,0,0.0128534,0.0344602,0.617388,0.015708,-1.07861,0.0418879,0.0163459,-1.07967,0.0189307,247,248,3.10574,-0.810772,0
35014791,0,0,0,0.0129628,0.0343733,0.617416,0.0191986,-1.07687,0.0401426,0.0197272,-1.07784,0.0171571,245,250,3.09253,-0.843656,0
35283292,0,0,0,0.0129628,0.0343733,0.617416,0.0191986,-1.07861,0.0401426,0.0197272,-1.07958,0.0171571,245,250,3.07969,-0.84327,0
35542894,0,0,0,0.0129628,0.0343733,0.617416,0.0191986,-1.07861,0.0401426,0.0197272,-1.07958,0.0171571,245,250,3.07969,-0.84327,0
35843673,0,0,0,0.0129628,0.0343733,0.617416,0.0191986,-1.07861,0.0418879,0.0197272,-1.07958,0.0189024,244,250,3.08201,-0.851278,0
36114583,0,0,0,0.0129628,0.0343733,0.617416,0.0191986,-1.07861,0.0418879,0.0197272,-1.07958,0.0189024,243,249,3.09782,-0.864772,0
36390652,0,0,0,0.0129628,0.0343733,0.617416,0.0191986,-1.07861,0.0418879,0.0197272,-1.07958,0.0189024,244,250,3.08201,-0.851278,0
36666573,0,0,0,0.0129628,0.0343733,0.617416,0.0191986,-1.07861,0.0418879,0.0197272,-1.07958,0.0189024,244,250,3.08201,-0.851278,0
36934435,0,0,0,0.0129628,0.0343733,0.617416,0.0226893,-1.07861,0.0418879,0.0232179,-1.07958,0.0189024,244,250,3.08589,-0.851789,0
37215894,0,0,0,0.0124663,0.0342269,0.618062,0.0226893,-1.08036,0.0401426,0.0237144,-1.08118,0.0165113,243,249,3.08762,-0.867222,0
37478868,0,0,0,0.0125315,0.0342257,0.618199,0.0226893,-1.08036,0.0401426,0.0236492,-1.08118,0.0163736,244,250,3.07177,-0.85413,0
37743827,0,0,0,0.0125315,0.0342257,0.618199,0.0226893,-1.08036,0.0401426,0.0236492,-1.08118,0.0163736,244,249,3.08671,-0.85431,0
38017560,0,0,0,0.0125315,0.0342257,0.618199,0.0191986,-1.07861,0.0418879,0.0201586,-1.07943,0.0181189,244,249,3.09719,-0.848948,0
38276772,0,0,0,0.0125315,0.0342257,0.618199,0.0191986,-1.07861,0.0436332,0.0201586,-1.07943,0.0198643,245,249,3.0978,-0.830374,0
38570760,0,0,0,0.0125315,0.0342257,0.618199,0.0191986,-1.07861,0.0453786,0.0201586,-1.07943,0.0216096,245,248,3.11425,-0.825217,0
38839453,0,0,0,0.0121118,0.0344447,0.60729,0.0191986,-1.07861,0.0436332,0.0205783,-1.07965,0.0307739,245,248,3.11312,-0.828883,0
39109664,0,0,0,0.0121118,0.0344447,0.60729,0.0191986,-1.07861,0.0436332,0.0205783,-1.07965,0.0307739,245,249,3.09813,-0.828725,0
39372513,0,0,0,0.0121118,0.0344447,0.60729,0.0191986,-1.07512,0.0453786,0.0205783,-1.07616,0.0325193,243,250,3.11215,-0.850519,0
39633559,0,0,0,0.0121118,0.0344447,0.60729,0.0191986,-1.07687,0.0436332,0.0205783,-1.07791,0.0307739,242,250,3.09865,-0.868743,0
39955006,0,0,0,0.0123255,0.0344227,0.611541,0.0191986,-1.07512,0.0436332,0.0203645,-1.07614,0.0265232,243,250,3.11048,-0.856768,0
41285741,0,0,0,0.0125211,0.0343607,0.613547,0.0226893,-1.07861,0.0436332,0.0236596,-1.07957,0.0245165,243,250,3.08856,-0.857516,0
41611304,0,0,0,0.0125211,0.0343607,0.613547,0.0226893,-1.08036,0.0453786,0.0236596,-1.08131,0.0262619,243,251,3.06233,-0.851783,0
41869287,0,0,0,0.0100834,0.0339065,0.619092,0.0244346,-1.08559,0.0453786,0.0278426,-1.0861,0.0207172,243,251,3.02721,-0.83672,0
42131645,0,0,0,0.0100834,0.0339065,0.619092,0.0244346,-1.08559,0.0453786,0.0278426,-1.0861,0.0207172,243,251,3.02721,-0.83672,0
42378931,0,0,0,0.0109283,0.0340478,0.620215,0.0244346,-1.08559,0.0453786,0.0269977,-1.08624,0.0195945,243,251,3.02675,-0.841488,0
42640379,0,0,0,0.0110702,0.0340447,0.620226,0.0226893,-1.08385,0.0471239,0.0251105,-1.08449,0.021328,243,250,3.05382,-0.837232,0
42891302,0,0,0,0.0111624,0.0340557,0.620221,0.0226893,-1.0821,0.0471239,0.0250183,-1.08275,0.0213331,243,247,3.11139,-0.838278,0
43148471,0,0,0,0.0111624,0.0340557,0.620221,0.0191986,-1.08385,0.0488692,0.0215276,-1.0845,0.0230785,244,246,3.1101,-0.819122,0
45385266,0,0,0,0.0118604,0.0343365,0.619721,0.0191986,-1.08036,0.0436332,0.0208296,-1.08129,0.018343,244,246,3.13113,-0.839869,0
45647221,0,0,0,0.0115735,0.0341203,0.625779,0.0191986,-1.0821,0.0436332,0.0211165,-1.08282,0.0122851,243,246,3.11915,-0.850732,0
45896154,0,0,0,0.0115619,0.0341043,0.6268,0.0191986,-1.0821,0.0436332,0.0211281,-1.0828,0.011264,243,247,3.10414,-0.850426,0
46155556,0,0,0,0.0115619,0.0341043,0.6268,0.0191986,-1.0821,0.0436332,0.0211281,-1.0828,0.011264,242,247,3.10502,-0.863709,0
