Timestamp,Latitude,Longitude,Altitude,Plane Roll,Plane Pitch,Plane Yaw,Gimbal Roll,Gimbal Pitch,Gimbal Yaw,Gimbal Delta Roll,Gimbal Delta Pitch,Gimbal Delta Yaw,X in frame,Y in frame,Estimated X,Estimated Y,Estimated Z
2872151,0,0,0,0.0100398,0.0293644,0.603351,-0,-1.18508,0.010472,0.000644684,-1.18522,0.0148931,331,182,3.25318,0.214633,0
3267868,0,0,0,0.00968328,0.0293557,0.601385,-0,-1.28107,0.00872665,0.00100122,-1.28121,0.0151135,329,168,2.75715,0.175768,0
3552099,0,0,0,0.00966557,0.0293628,0.601037,-0,-1.2898,0.00872665,0.00101893,-1.28994,0.015461,329,161,2.79383,0.17631,0
3877618,0,0,0,0.00928155,0.0293342,0.602484,-0,-1.37706,0.00349066,0.00140294,-1.37718,0.00877848,330,155,2.27703,0.171475,0
4166533,0,0,0,0.00895049,0.0292918,0.601752,-0,-1.44513,0.010472,0.001734,-1.4452,0.0164913,331,152,1.87127,0.194315,0
4448401,0,0,0,0.00868242,0.0292566,0.600842,-0,-1.49051,0.00523599,0.00200207,-1.49055,0.012166,331,149,1.62358,0.183665,0
4821536,0,0,0,0.00902923,0.0293261,0.601638,0.00349066,-1.51844,0.00523599,0.00514593,-1.51854,0.0113701,332,146,1.48643,0.195632,0
5078544,0,0,0,0.00907677,0.0293413,0.602406,0.00349066,-1.5516,0.010472,0.00509838,-1.55172,0.0158375,332,137,1.38994,0.201282,0
6516667,0,0,0,0.00933672,0.0295301,0.602287,-0,-1.07338,0.00523599,0.00134777,-1.07369,0.0107209,333,91,5.93998,0.28068,0
6844647,0,0,0,0.00933487,0.0295697,0.601504,-0,-1.04022,0.00174533,0.00134962,-1.04057,0.00801323,331,62,7.0576,0.245202,0
7104740,0,0,0,0.00918475,0.0296044,0.600974,-0.00349066,-1.03323,0,-0.00199091,-1.03362,0.00679809,333,47,7.56048,0.264944,0
7359578,0,0,0,0.00907708,0.0295746,0.600618,-0.00698132,-1.02974,0.00174533,-0.0053739,-1.0301,0.00889932,332,34,7.98225,0.253496,0
7622399,0,0,0,0.00904386,0.0296228,0.598587,-0.00698132,-1.028,0.00523599,-0.00534069,-1.0284,0.0144209,331,28,8.18584,0.265625,0
8107449,0,0,0,0.00888126,0.0296814,0.597356,-0.010472,-1.08909,0.0349066,-0.00866874,-1.08955,0.0453222,336,266,2.707,0.342588,0
8369921,0,0,0,0.00886114,0.0296788,0.599374,-0.0122173,-1.13272,0.0506145,-0.010394,-1.13318,0.0590123,336,278,2.23938,0.35682,0
8630364,0,0,0,0.00888382,0.0296938,0.600302,-0.0122173,-1.17461,0.0610865,-0.0104166,-1.17508,0.0685558,335,279,1.95023,0.346562,0
8883192,0,0,0,0.00893062,0.0297625,0.599472,-0.010472,-1.19555,0.0593412,-0.0087181,-1.19609,0.0676407,334,281,1.79203,0.319006,0
9132652,0,0,0,0.00893125,0.0297963,0.599432,-0.010472,-1.2322,0.0610865,-0.00871873,-1.23278,0.0694261,332,283,1.5387,0.280354,0
9795392,0,0,0,0.0089051,0.0298768,0.597829,-0.015708,-1.37183,0.0837758,-0.0139286,-1.37248,0.0937182,322,224,1.42014,0.175158,0
10057565,0,0,0,0.00928325,0.0299274,0.595061,-0.015708,-1.35263,0.0837758,-0.0143067,-1.35334,0.0964865,320,207,1.75441,0.173425,0
10301581,0,0,0,0.00925292,0.0299279,0.594139,-0.0191986,-1.31598,0.0750492,-0.0177671,-1.31669,0.0886821,320,195,2.14656,0.183953,0
10551464,0,0,0,0.00900526,0.029968,0.591287,-0.015708,-1.27235,0.0680678,-0.0140287,-1.27309,0.0845526,319,175,2.7156,0.194674,0
10794885,0,0,0,0.00896393,0.02995,0.592095,-0.015708,-1.22697,0.0610865,-0.0139874,-1.2277,0.076763,319,163,3.21984,0.204237,0
11245976,0,0,0,0.00914896,0.0299292,0.5947,-0.0122173,-1.13446,0.0488692,-0.0106818,-1.13517,0.0619412,311,109,4.91778,0.120382,0
11510906,0,0,0,0.0093837,0.0299489,0.606462,-0.0122173,-1.10654,0.0453786,-0.0109165,-1.10727,0.0466887,313,123,4.92824,0.133969,0
11767195,0,0,0,0.00908057,0.0300034,0.603095,-0.010472,-1.04894,0.0383972,-0.00886806,-1.04973,0.0430736,316,150,4.97751,0.154488,0
12016001,0,0,0,0.00897686,0.0300388,0.60236,-0.010472,-1.03149,0.0366519,-0.00876434,-1.03231,0.042064,317,165,4.85656,0.15969,0
12488962,0,0,0,0.00863221,0.029998,0.600477,-0.010472,-0.918043,0.0349066,-0.00841969,-0.91882,0.0422018,318,178,5.78073,0.199354,0
12752476,0,0,0,0.00863221,0.029998,0.600477,-0.00698132,-0.870919,0.0226893,-0.00492903,-0.871696,0.0299845,324,235,5.04783,0.216338,0
13009464,0,0,0,0.00863221,0.029998,0.600477,-0.00698132,-0.867429,0.0244346,-0.00492903,-0.868206,0.0317298,325,251,4.76086,0.232938,0
13269814,0,0,0,0.00686552,0.0299176,0.593162,-0.00349066,-0.937242,0.0366519,0.00032831,-0.937939,0.0512615,326,275,3.71371,0.268237,0
13715638,0,0,0,0.00612401,0.0298244,0.591934,-0,-1.0821,0.0296706,0.00456049,-1.08271,0.0455079,327,287,2.46487,0.212767,0
13983437,0,0,0,0.00612401,0.0298244,0.591934,-0,-1.11003,0.0279253,0.00456049,-1.11063,0.0437626,330,379,1.14393,0.193552,0
14240475,0,0,0,0.00593118,0.0298571,0.589721,-0,-1.12225,0.020944,0.00475331,-1.12288,0.0389942,331,387,0.982217,0.193278,0
14499462,0,0,0,0.00593118,0.0298571,0.589721,-0,-1.14145,0.0226893,0.00475331,-1.14208,0.0407395,330,369,1.06995,0.187703,0
14921725,0,0,0,0.00607005,0.0300036,0.586657,-0,-1.20951,0.0174533,0.00461445,-1.2103,0.0385683,329,314,1.30649,0.180122,0
15189766,0,0,0,0.00607005,0.0300036,0.586657,-0,-1.2322,0.015708,0.00461445,-1.23299,0.036823,332,243,2.0615,0.236164,0
15446343,0,0,0,0.00607005,0.0300036,0.586657,-0,-1.24617,0.010472,0.00461445,-1.24695,0.031587,332,232,2.11736,0.227342,0
15704207,0,0,0,0.00607005,0.0300036,0.586657,-0,-1.26362,0.010472,0.00461445,-1.2644,0.031587,333,220,2.16261,0.241337,0
16181170,0,0,0,0.00607005,0.0300036,0.586657,-0,-1.33867,0.015708,0.00461445,-1.33945,0.036823,333,208,1.8341,0.244875,0
17319756,0,0,0,0.0035621,0.0297579,0.581139,0.00349066,-1.4015,0.0261799,0.0106131,-1.40204,0.0528129,333,177,1.82871,0.282757,0
17584613,0,0,0,0.00306968,0.0296897,0.579784,0.00349066,-1.33169,0.020944,0.0111055,-1.33216,0.0489313,334,165,2.44421,0.309,0
17841943,0,0,0,0.00306968,0.0296897,0.579784,0.00698132,-1.27758,0.0139626,0.0145961,-1.27805,0.0419499,334,156,2.94944,0.310199,0
18099249,0,0,0,0.000571422,0.0292779,0.574814,0.010472,-1.22348,0.00872665,0.020585,-1.22353,0.0416841,333,149,3.46128,0.315798,0
18358669,0,0,0,0.000965609,0.0293491,0.57502,0.00698132,-1.17635,0.010472,0.0167002,-1.17648,0.0432235,331,115,4.41238,0.316526,0
18617624,0,0,0,0.00258889,0.0295655,0.575161,0.00698132,-1.14494,0.010472,0.0150769,-1.14528,0.0430824,330,105,4.88855,0.303251,0
18881163,0,0,0,0.00299027,0.0296163,0.573391,0.00698132,-1.11876,0.00872665,0.0146755,-1.11915,0.0431069,333,144,4.42483,0.319047,0
19135868,0,0,0,0.00338372,0.0296106,0.574404,0.00698132,-1.09956,0.00698132,0.0142821,-1.09995,0.0403488,337,170,4.13771,0.355498,0
19394134,0,0,0,0.00415359,0.0297095,0.574762,0.00698132,-1.0821,0.00523599,0.0135122,-1.08259,0.0382456,337,195,3.86046,0.332814,0
19640114,0,0,0,0.00415359,0.0297095,0.574762,0.00349066,-1.0664,0.00523599,0.0100216,-1.06688,0.0382456,337,206,3.80764,0.328203,0
19905418,0,0,0,0.00415359,0.0297095,0.574762,0.00349066,-1.05069,0.00523599,0.0100216,-1.05118,0.0382456,337,226,3.60607,0.321055,0
20147976,0,0,0,0.00415359,0.0297095,0.574762,0.00349066,-1.03149,0.00872665,0.0100216,-1.03198,0.0417363,337,238,3.5637,0.330739,0
20402545,0,0,0,0.00537847,0.0298913,0.571814,0.00349066,-1.01753,0.0191986,0.00879668,-1.0182,0.0551563,338,249,3.49379,0.36999,0
20957901,0,0,0,0.00456552,0.0298684,0.567727,-0,-0.92677,0.020944,0.00611897,-0.927417,0.0609888,337,255,4.14257,0.392195,0
21222244,0,0,0,0.00452525,0.0298629,0.566451,-0,-0.919789,0.0174533,0.00615924,-0.920431,0.0587735,337,263,4.06383,0.374259,0
21476208,0,0,0,0.00476398,0.02991,0.567017,-0,-0.925025,0.0174533,0.00592051,-0.925714,0.0582083,337,274,3.83202,0.363275,0
21722180,0,0,0,0.00467421,0.029919,0.56706,0.00349066,-0.95295,0.020944,0.00950095,-0.953648,0.0616555,336,285,3.4288,0.344173,0
21970949,0,0,0,0.00431963,0.0298508,0.566751,0.00349066,-0.989602,0.0174533,0.00985552,-0.990232,0.0584742,334,295,3.00336,0.292274,0
22389767,0,0,0,0.00289499,0.0295909,0.567059,0.00698132,-1.0821,0.015708,0.0147708,-1.08247,0.0564211,334,349,1.66665,0.245395,0
23667864,0,0,0,0.000146392,0.0290504,0.567452,0.010472,-1.13621,0.015708,0.0210101,-1.13604,0.0560276,335,291,2.05191,0.292139,0
23928119,0,0,0,0.000485936,0.0291211,0.564689,0.00698132,-1.16413,0.0174533,0.0171799,-1.16403,0.0605356,336,251,2.40294,0.328024,0
24186968,0,0,0,0.000988717,0.0291958,0.563699,0.010472,-1.18333,0.0191986,0.0201678,-1.18331,0.0632713,337,251,2.27243,0.337331,0
24444931,0,0,0,0.00172863,0.0292955,0.563228,0.00698132,-1.20079,0.020944,0.0159372,-1.20086,0.0654872,336,247,2.21137,0.323723,0
25006035,0,0,0,0.0024598,0.0294429,0.563206,0.00698132,-1.10828,0.015708,0.015206,-1.10851,0.0602732,336,238,2.97939,0.332142,0
25269129,0,0,0,0.00240253,0.0294722,0.562957,0.00698132,-1.0664,0.015708,0.0152633,-1.06665,0.0605231,335,214,3.67322,0.345373,0
25521374,0,0,0,0.00252497,0.0294815,0.563099,0.00349066,-1.01578,0.0122173,0.0116502,-1.01604,0.05689,334,202,4.31041,0.336765,0
25770548,0,0,0,0.00198491,0.0293855,0.563255,0.00349066,-1.02102,0.015708,0.0121902,-1.02118,0.0602251,333,190,4.48187,0.34768,0
26031903,0,0,0,0.00194582,0.0293347,0.564493,0.00349066,-1.01753,0.0139626,0.0122293,-1.01764,0.0572415,333,187,4.57041,0.343444,0
26286194,0,0,0,0.00223133,0.0293669,0.565248,0.00349066,-1.00007,0.0122173,0.0119438,-1.00022,0.0547407,335,260,3.45952,0.319228,0
26733428,0,0,0,0.000409049,0.0290312,0.561232,0.00349066,-0.947714,0.00698132,0.0137661,-0.947524,0.0535215,336,287,3.44346,0.318613,0
26992301,0,0,0,0.000562089,0.0290641,0.562298,0.00698132,-0.937242,0.00523599,0.0171037,-0.937085,0.0507096,335,290,3.47759,0.295971,0
27243823,0,0,0,-9.14757e-05,0.028939,0.561314,0.00698132,-0.925025,0.00349066,0.0177573,-0.924743,0.0499481,335,287,3.6226,0.296763,0
27514465,0,0,0,-0.000108475,0.028935,0.559633,0.00698132,-0.909317,0,0.0177743,-0.909031,0.0481389,336,299,3.5563,0.293571,0
27763192,0,0,0,-7.48111e-05,0.0289464,0.559229,0.00349066,-0.884882,0,0.01425,-0.884607,0.0485423,335,305,3.65646,0.282542,0
29541553,0,0,0,-0.00331118,0.02832,0.556301,0.0139626,-0.818559,0.00174533,0.0279583,-0.817658,0.0532155,341,413,2.60903,0.308111,0
29803202,0,0,0,-0.0027671,0.0283915,0.557256,0.0139626,-0.813323,0.00174533,0.0274142,-0.812494,0.0522607,343,414,2.63201,0.3304,0
30058281,0,0,0,-0.0027671,0.0283915,0.557256,0.010472,-0.801106,0,0.0239236,-0.800277,0.0505154,346,416,2.69275,0.369975,0
30316612,0,0,0,-0.0027671,0.0283915,0.557256,0.010472,-0.780162,0.00698132,0.0239236,-0.779333,0.0574967,346,418,2.81313,0.390441,0
31319023,0,0,0,-0.00155263,0.0286729,0.557044,0.00698132,-0.855211,0.0314159,0.0192184,-0.854663,0.0821436,346,420,2.26558,0.433998,0
31591832,0,0,0,-0.00161673,0.0286233,0.557385,0.010472,-0.890118,0.0314159,0.0227732,-0.88952,0.0818028,347,422,2.012,0.42601,0
33107180,0,0,0,-0.00323956,0.0283793,0.553448,0.0139626,-1.07512,0.0349066,0.0278867,-1.07428,0.0892306,337,332,1.91549,0.347413,0
33369905,0,0,0,-0.00407937,0.0283224,0.555204,0.015708,-1.09781,0.0331613,0.0304718,-1.09691,0.0857287,336,307,2.0893,0.351976,0
33625051,0,0,0,-0.00465614,0.0282264,0.555551,0.0191986,-1.12574,0.0314159,0.0345393,-1.12474,0.0836367,338,281,2.24694,0.392317,0
33881557,0,0,0,-0.00463885,0.028239,0.555702,0.015708,-1.13446,0.0331613,0.0310313,-1.13348,0.0852309,336,272,2.31171,0.37935,0
34142010,0,0,0,-0.00450396,0.0282759,0.552949,0.015708,-1.13795,0.0349066,0.0308964,-1.13701,0.0897293,334,257,2.49478,0.371499,0
34942059,0,0,0,-0.0023874,0.0286563,0.556143,0.015708,-1.1781,0.0331613,0.0287799,-1.17753,0.0847901,334,245,2.38722,0.355427,0
35212867,0,0,0,-0.00146795,0.0288183,0.554833,0.015708,-1.18159,0.0314159,0.0278604,-1.18119,0.084355,333,229,2.58632,0.347258,0
