Timestamp,Latitude,Longitude,Altitude,Plane Roll,Plane Pitch,Plane Yaw,Gimbal Roll,Gimbal Pitch,Gimbal Yaw,Gimbal Delta Roll,Gimbal Delta Pitch,Gimbal Delta Yaw,X in frame,Y in frame,Estimated X,Estimated Y,Estimated Z
2916074,0,0,0,-0.00353976,0.0329287,0.345387,0.00349066,-0.966912,-0.0331613,0.00272487,-0.967605,-0.047143,360,358,2.31491,0.440306,0
3340674,0,0,0,-0.00356808,0.0329938,0.347063,-0,-1.04022,-0.00174533,-0.000737464,-1.04097,-0.0174035,359,354,1.87449,0.494513,0
3629930,0,0,0,-0.0035188,0.0330469,0.349007,0.00349066,-1.07861,0.010472,0.00270391,-1.07942,-0.00713026,358,348,1.69753,0.495565,0
3966007,0,0,0,-0.00348933,0.0330712,0.350148,0.00698132,-1.18333,0.0523599,0.00616509,-1.18417,0.0336174,357,342,1.10578,0.509121,0
4258172,0,0,0,-0.00346074,0.0330971,0.351351,0.00698132,-1.24093,0.0680678,0.00613651,-1.24179,0.0481219,356,335,0.837564,0.494527,0
4774921,0,0,0,-0.003423,0.0331999,0.350965,0.00698132,-1.33867,0.0488692,0.00609877,-1.33963,0.0293098,355,326,0.378864,0.443543,0
5168664,0,0,0,-0.00337494,0.0332384,0.352097,0.010472,-1.28107,0.0314159,0.00954136,-1.28207,0.0107244,352,300,1.02929,0.429936,0
5449164,0,0,0,-0.00326408,0.0332978,0.353787,0.010472,-1.18857,0.00349066,0.0094305,-1.18963,-0.0188907,348,267,2.02616,0.377688,0
5704823,0,0,0,-0.00317801,0.0333773,0.355026,0.010472,-1.13795,-0.0122173,0.00934444,-1.1391,-0.0358376,340,220,3.03467,0.256459,0
9188026,0,0,0,-0.00311955,0.0340673,0.368967,0.00698132,-0.844739,0.00872665,0.00579532,-0.846571,-0.0288354,338,192,6.31874,0.396685,0
9798728,0,0,0,-0.00323822,0.034146,0.368425,0.00349066,-0.932006,0.020944,0.00242333,-0.933916,-0.0160761,342,157,6.10034,0.526605,8.88178e-16
10157578,0,0,0,-0.0032736,0.034192,0.368867,0.00349066,-0.989602,0.0191986,0.00245871,-0.991557,-0.0182634,350,209,4.40857,0.553567,0
10438979,0,0,0,-0.00322245,0.0342254,0.37132,0.00349066,-1.01753,0.020944,0.00240756,-1.01952,-0.0189709,355,250,3.47108,0.577408,0
10729216,0,0,0,-0.00335444,0.0342267,0.369728,0.00349066,-1.07163,0.0331613,0.00253955,-1.07362,-0.00516107,356,264,2.84713,0.590424,0
11965067,0,0,0,-0.00331076,0.0343693,0.375186,0.010472,-1.09781,0.118682,0.00947718,-1.09995,0.0749013,348,358,1.4108,0.506877,0
12224825,0,0,0,-0.00328631,0.034386,0.374713,0.0122173,-1.1013,0.143117,0.0111981,-1.10345,0.0998096,348,334,1.66125,0.584942,0
12490094,0,0,0,-0.00332987,0.0343893,0.373541,0.0122173,-1.11003,0.171042,0.0112416,-1.11218,0.128906,347,314,1.83732,0.658283,0
13002216,0,0,0,-0.0033393,0.0344156,0.372949,0.010472,-1.03673,0.115192,0.00950573,-1.0389,0.0736479,345,290,2.6799,0.648702,0
13268355,0,0,0,-0.00341358,0.0344445,0.37155,0.010472,-1.01578,0.0977384,0.00958,-1.01799,0.0575934,331,282,2.97457,0.452963,0
13523258,0,0,0,-0.00342293,0.0344388,0.370112,0.010472,-0.996583,0.0785398,0.00958936,-0.998786,0.0398326,328,281,3.14233,0.371245,0
13775980,0,0,0,-0.0034916,0.0344598,0.369832,0.00698132,-0.986111,0.0698132,0.00616737,-0.988335,0.0313867,323,276,3.3059,0.2919,0
14033333,0,0,0,-0.00359387,0.0344646,0.368637,0.00698132,-0.970403,0.0593412,0.00626964,-0.972631,0.0221094,321,277,3.41569,0.237761,0
14503766,0,0,0,-0.003667,0.0344852,0.367019,0.00698132,-0.92677,0.0401426,0.00634277,-0.929019,0.00452913,334,327,2.98825,0.321463,0
14774648,0,0,0,-0.00375222,0.0344754,0.365465,0.00698132,-0.914553,0.0331613,0.00642799,-0.916792,-0.000898686,337,337,2.93496,0.336235,0
15030141,0,0,0,-0.00377866,0.0344652,0.364265,0.00698132,-0.905826,0.0314159,0.00645442,-0.908055,-0.00144373,339,345,2.885,0.353327,0
15286019,0,0,0,-0.00388188,0.0344739,0.362497,0.00698132,-0.902335,0.0279253,0.00655765,-0.904573,-0.00316645,341,355,2.77223,0.362412,0
15545006,0,0,0,-0.00399206,0.0344514,0.359918,0.00698132,-0.902335,0.0279253,0.00666783,-0.90455,-0.000587865,343,368,2.59724,0.377216,0
16026035,0,0,0,-0.00400449,0.0345017,0.361445,0.00349066,-0.912807,0.0366519,0.0031896,-0.915073,0.00661201,346,395,2.18139,0.413965,0
17625836,0,0,0,-0.00399807,0.0345637,0.358818,0.00698132,-0.977384,0.0506145,0.00667384,-0.979712,0.0232014,342,380,1.93956,0.376732,0
19279162,0,0,0,-0.00400751,0.0343474,0.362856,0.00349066,-1.0472,0.0506145,0.00319262,-1.04931,0.0191643,342,371,1.60708,0.363619,0
19560080,0,0,0,-0.00400751,0.0343474,0.362856,0.00349066,-1.05069,0.0506145,0.00319262,-1.0528,0.0191643,342,369,1.60898,0.364071,0
19833477,0,0,0,-0.00413188,0.0343536,0.361084,0.00349066,-1.05418,0.0506145,0.00331699,-1.0563,0.0209358,341,357,1.73111,0.362043,0
20092907,0,0,0,-0.00413188,0.0343536,0.361084,0.00349066,-1.06989,0.0471239,0.00331699,-1.072,0.0174452,342,356,1.64548,0.363271,0
20522300,0,0,0,-0.00439663,0.0343967,0.35981,0.00349066,-1.12923,0.0471239,0.00358174,-1.13139,0.0187194,342,329,1.60323,0.365871,0
20773927,0,0,0,-0.00439663,0.0343967,0.35981,0.00698132,-1.15017,0.0506145,0.0070724,-1.15233,0.0222101,341,313,1.66848,0.36217,0
21036734,0,0,0,-0.00439663,0.0343967,0.35981,0.00698132,-1.17461,0.0523599,0.0070724,-1.17677,0.0239554,341,309,1.56541,0.359104,0
21299098,0,0,0,-0.00439663,0.0343967,0.35981,0.00698132,-1.20602,0.0506145,0.0070724,-1.20818,0.0222101,341,305,1.42176,0.348346,0
21849281,0,0,0,-0.00459247,0.0344472,0.35652,0.00698132,-1.30027,0.0523599,0.00726823,-1.30248,0.0272451,341,293,0.997723,0.327509,0
22117619,0,0,0,-0.00459247,0.0344472,0.35652,0.010472,-1.28107,0.0471239,0.0107589,-1.28328,0.0220091,340,259,1.53146,0.343611,0
22376064,0,0,0,-0.00459247,0.0344472,0.35652,0.010472,-1.24966,0.0366519,0.0107589,-1.25187,0.0115371,339,248,1.87267,0.333678,0
22635142,0,0,0,-0.00457868,0.0344407,0.355993,0.010472,-1.24093,0.0349066,0.0107451,-1.24313,0.0103185,339,231,2.15303,0.345949,0
23139139,0,0,0,-0.00458221,0.0344283,0.355399,0.00698132,-1.27584,0.0436332,0.00725798,-1.27803,0.0196394,339,223,2.02945,0.357484,0
23401615,0,0,0,-0.00458221,0.0344283,0.355399,0.00698132,-1.24617,0.0331613,0.00725798,-1.24836,0.00916744,339,184,2.76594,0.374236,0
23931098,0,0,0,-0.00458221,0.0344283,0.355399,0.00698132,-1.22348,0.0331613,0.00725798,-1.22567,0.00916744,342,208,2.58458,0.402731,0
24184530,0,0,0,-0.00456199,0.0345035,0.355413,0.010472,-1.20777,0.0296706,0.0107284,-1.21004,0.00566298,342,207,2.70816,0.401269,0
24579459,0,0,0,-0.00456199,0.0345035,0.355413,0.010472,-1.18333,0.0244346,0.0107284,-1.1856,0.000426991,340,197,3.03135,0.376197,0
24837142,0,0,0,-0.00495395,0.0345827,0.349275,0.010472,-1.17112,0.0226893,0.0111204,-1.17346,0.0048193,342,208,2.95784,0.395196,0
25098547,0,0,0,-0.00485274,0.03458,0.35011,0.010472,-1.14145,0.015708,0.0110192,-1.14379,-0.00299642,342,215,3.07376,0.37783,0
25363922,0,0,0,-0.00485274,0.03458,0.35011,0.010472,-1.13272,0.0139626,0.0110192,-1.13506,-0.00474175,343,223,3.01885,0.382952,0
25620420,0,0,0,-0.00485274,0.03458,0.35011,0.010472,-1.12225,0.0122173,0.0110192,-1.12459,-0.00648708,344,229,3.00659,0.389854,0
26029714,0,0,0,-0.00487048,0.0345887,0.34969,0.010472,-1.09781,0.00872665,0.0110369,-1.10016,-0.00955818,344,243,2.97847,0.3768,0
26301775,0,0,0,-0.00487048,0.0345887,0.34969,0.010472,-1.08909,0.00698132,0.0110369,-1.09144,-0.0113035,345,252,2.90954,0.381484,0
26563457,0,0,0,-0.00487048,0.0345887,0.34969,0.010472,-1.08559,0.00698132,0.0110369,-1.08795,-0.0113035,346,261,2.80346,0.389957,0
26834348,0,0,0,-0.00489222,0.0345988,0.348588,0.010472,-1.07687,0.00523599,0.0110586,-1.07923,-0.0119465,347,269,2.7508,0.395327,0
27301251,0,0,0,-0.00489222,0.0345988,0.348588,0.00698132,-1.05767,0.00698132,0.00756799,-1.06003,-0.0102012,347,274,2.81582,0.402592,0
27574121,0,0,0,-0.00489222,0.0345988,0.348588,0.00698132,-1.0472,0.00523599,0.00756799,-1.04956,-0.0119465,348,287,2.70484,0.405546,0
27833688,0,0,0,-0.00483464,0.0346109,0.348993,0.00698132,-1.04196,0.00523599,0.00751041,-1.04434,-0.0123519,348,290,2.6992,0.404615,0
28092430,0,0,0,-0.00480946,0.0346258,0.3489,0.00698132,-1.04022,0.0122173,0.00748523,-1.04261,-0.00527731,348,294,2.65236,0.420558,0
28551853,0,0,0,-0.00480946,0.0346258,0.3489,0.00698132,-1.028,0.0139626,0.00748523,-1.03039,-0.00353198,349,300,2.6526,0.436864,0
28820548,0,0,0,-0.00494757,0.0346396,0.345308,0.00698132,-1.02102,0.010472,0.00762334,-1.02342,-0.00343063,348,313,2.52322,0.408646,0
29078926,0,0,0,-0.00494757,0.0346396,0.345308,0.00698132,-1.01229,0.00698132,0.00762334,-1.01469,-0.00692129,349,315,2.55704,0.413332,0
29332844,0,0,0,-0.00483072,0.0346803,0.346237,0.00698132,-1.00007,0.00349066,0.00750649,-1.00252,-0.0113414,348,317,2.61556,0.392519,0
29764201,0,0,0,-0.00478344,0.0346636,0.347172,0.00698132,-0.987856,-0.00174533,0.00745921,-0.990284,-0.0175117,347,320,2.66121,0.366562,0
30031967,0,0,0,-0.004825,0.0346749,0.346272,0.00698132,-0.984366,-0.00174533,0.00750076,-0.986804,-0.0166124,347,328,2.57583,0.36334,0
30289133,0,0,0,-0.00474879,0.0347204,0.347673,0.00698132,-0.986111,-0.00174533,0.00742455,-0.988595,-0.0180128,348,333,2.49635,0.373092,0
30551611,0,0,0,-0.00474879,0.0347204,0.347673,0.00698132,-0.975639,-0.0122173,0.00742455,-0.978123,-0.0284848,349,339,2.49139,0.35882,0
30974913,0,0,0,-0.00474879,0.0347204,0.347673,0.010472,-1.00356,0,0.0109152,-1.00605,-0.0162675,349,346,2.20681,0.376302,0
31255215,0,0,0,-0.00474879,0.0347204,0.347673,0.010472,-1.02625,0.00174533,0.0109152,-1.02874,-0.0145222,350,353,1.96995,0.385439,0
31512332,0,0,0,-0.00474879,0.0347204,0.347673,0.00698132,-1.06465,0.00349066,0.00742455,-1.06714,-0.0127768,350,352,1.73872,0.389042,0
31775658,0,0,0,-0.00474847,0.0346946,0.345187,0.010472,-1.1013,0.00523599,0.0109149,-1.10376,-0.00854562,352,359,1.42534,0.402445,0
32302090,0,0,0,-0.00474847,0.0346946,0.345187,0.00698132,-1.17112,0.00872665,0.00742423,-1.17357,-0.00505496,352,359,1.00384,0.403352,0
32558801,0,0,0,-0.00471064,0.0346756,0.345871,0.00698132,-1.19555,0.015708,0.00738641,-1.19799,0.00124209,350,334,1.14562,0.39598,0
32825822,0,0,0,-0.0048333,0.0346589,0.344993,0.00698132,-1.23395,0.0244346,0.00750907,-1.23637,0.0108469,349,320,1.07765,0.394671,0
33094071,0,0,0,-0.0048333,0.0346589,0.344993,0.010472,-1.26362,0.0296706,0.0109997,-1.26604,0.0160829,347,285,1.31823,0.390042,0
33362923,0,0,0,-0.0048333,0.0346589,0.344993,0.010472,-1.30202,0.0366519,0.0109997,-1.30444,0.0230642,347,278,1.16877,0.393049,0
33717200,0,0,0,-0.00471347,0.0346125,0.346628,0.010472,-1.34041,0.0349066,0.0108799,-1.34279,0.0196843,345,237,1.44256,0.385395,0
34020580,0,0,0,-0.00471347,0.0346125,0.346628,0.010472,-1.38056,0.0349066,0.0108799,-1.38293,0.0196843,343,220,1.40933,0.361588,0
34548629,0,0,0,-0.00471347,0.0346125,0.346628,0.010472,-1.41372,0.0383972,0.0108799,-1.41609,0.023175,341,188,1.60367,0.354585,0
34812684,0,0,0,-0.00471347,0.0346125,0.346628,0.0122173,-1.4399,0.0418879,0.0126252,-1.44227,0.0266657,340,177,1.57696,0.348548,0
35270979,0,0,0,-0.00471347,0.0346125,0.346628,0.015708,-1.48178,0.0541052,0.0161159,-1.48416,0.038883,340,159,1.53389,0.3692,0
35534886,0,0,0,-0.00469567,0.0345508,0.342528,0.015708,-1.48353,0.0558505,0.0160981,-1.48584,0.0447282,340,142,1.73074,0.386367,0
35791668,0,0,0,-0.00469567,0.0345508,0.342528,0.0122173,-1.47655,0.0541052,0.0126074,-1.47886,0.0429828,339,134,1.87634,0.377247,0
36056288,0,0,0,-0.00469567,0.0345508,0.342528,0.0122173,-1.4399,0.0471239,0.0126074,-1.44221,0.0360015,338,126,2.21798,0.373209,0
36521366,0,0,0,-0.00439151,0.034677,0.346737,0.0122173,-1.33169,0.0261799,0.0123033,-1.33413,0.0108479,338,118,3.08741,0.362871,0
36790382,0,0,0,-0.00440702,0.034657,0.34616,0.0122173,-1.2898,0.015708,0.0123188,-1.29222,0.00095334,337,103,3.63295,0.337373,0
37320629,0,0,0,-0.00449075,0.0346159,0.344061,0.0122173,-1.25315,0.00872665,0.0124025,-1.25553,-0.00392873,337,115,3.74723,0.31568,0
37578229,0,0,0,-0.00440369,0.0345939,0.345283,0.0122173,-1.23744,0.00872665,0.0123154,-1.2398,-0.00515083,338,126,3.7029,0.326909,0
38123574,0,0,0,-0.00443073,0.0345874,0.344911,0.010472,-1.16763,-0.00872665,0.0105972,-1.16998,-0.0222321,344,179,3.43374,0.336457,0
38388323,0,0,0,-0.00446209,0.0345941,0.346033,0.00698132,-1.1589,-0.010472,0.00713786,-1.16126,-0.0250993,346,198,3.2104,0.351176,0
38919318,0,0,0,-0.00443499,0.034589,0.34678,0.00698132,-1.14145,-0.0139626,0.00711076,-1.1438,-0.0293376,346,206,3.22118,0.339895,0
