Timestamp,Latitude,Longitude,Altitude,Plane Roll,Plane Pitch,Plane Yaw,Gimbal Roll,Gimbal Pitch,Gimbal Yaw,Gimbal Delta Roll,Gimbal Delta Pitch,Gimbal Delta Yaw,X in frame,Y in frame,Estimated X,Estimated Y,Estimated Z
2589688,4.54945e+08,-7.35811e+08,-253250,0.0193168,0.0279,0.454907,0.0837758,-1.55334,-0.00174533,0.0918886,-1.55156,0.00171016,174,104,1.91877,-1.50126,0
2972358,4.54945e+08,-7.35811e+08,-253250,0.0172309,0.0274555,0.453108,0.0802851,-1.56382,-0.00174533,0.0904839,-1.56158,0.00350918,174,103,1.86087,-1.48472,0
3256035,4.54945e+08,-7.35811e+08,-253250,0.0172309,0.0274555,0.453108,0.0802851,-1.56207,0,0.0904839,-1.55984,0.00525451,175,109,1.80289,-1.4769,0
3551372,4.54945e+08,-7.35811e+08,-253250,0.0166912,0.0274059,0.451528,0.0837758,-1.5708,-0.00174533,0.0945143,-1.56851,0.00508959,174,109,1.75237,-1.47751,0
3838349,4.54945e+08,-7.35811e+08,-253250,0.0177183,0.0277537,0.452209,0.0837758,-1.5708,0,0.0934871,-1.56886,0.00615349,175,112,1.71758,-1.47411,0
4113389,4.54945e+08,-7.35811e+08,-253250,0.0181276,0.027942,0.452375,0.0802851,-1.57429,0,0.0895872,-1.57254,0.005988,174,112,1.6909,-1.49318,0
4421571,4.54945e+08,-7.35811e+08,-253250,0.0181276,0.027942,0.452375,0.0802851,-1.5708,0,0.0895872,-1.56905,0.005988,174,106,1.78313,-1.48844,0
5168185,4.54945e+08,-7.35811e+08,-253250,0.0341041,0.0318109,0.451333,0.0541052,-1.56382,0,0.0474307,-1.56594,0.00703022,175,111,1.70711,-1.65258,0
5460548,4.54945e+08,-7.35811e+08,-253250,0.0236629,0.0537008,0.446809,0.0645772,-1.57952,0.00174533,0.068344,-1.60354,0.0132996,176,117,1.56835,-1.54021,0
5807093,4.54945e+08,-7.35811e+08,-253250,-0.0078639,0.130588,0.456039,0.0872665,-1.56382,0.00174533,0.12256,-1.66472,0.0040697,175,117,1.73721,-1.27684,0
6072666,4.54945e+08,-7.35811e+08,-253250,-0.0178944,0.179924,0.471861,0.0977384,-1.57429,0,0.143062,-1.72452,-0.013498,173,109,1.78711,-1.17198,0
6387274,4.54945e+08,-7.35811e+08,-253250,-0.0410471,0.244683,0.483936,0.120428,-1.56382,0,0.188904,-1.77881,-0.0255726,173,111,1.88372,-0.932494,0
6653220,4.54945e+08,-7.35811e+08,-253250,-0.0395843,0.24223,0.487063,0.125664,-1.56207,0,0.192678,-1.77461,-0.0287006,164,106,1.97559,-1.02114,0
6991020,4.54945e+08,-7.35811e+08,-253250,0.00545203,0.120561,0.482346,0.0907571,-1.57429,-0.00174533,0.112735,-1.66516,-0.0257282,167,108,1.76554,-1.43847,0
7254110,4.54945e+08,-7.35811e+08,-253250,0.00545203,0.120561,0.482346,0.0802851,-1.56382,-0.00349066,0.102263,-1.65469,-0.0274735,177,105,1.83603,-1.34382,0
7502511,4.54945e+08,-7.35811e+08,-253250,0.0318544,0.0225422,0.467376,0.0733038,-1.54287,-0.00174533,0.0688791,-1.53573,-0.0107589,180,107,1.91544,-1.55405,0
7776131,4.54945e+08,-7.35811e+08,-253250,0.0268859,-0.0826157,0.431151,0.10472,-1.54985,-0.00349066,0.105264,-1.43755,0.0237212,189,102,1.97389,-1.33369,0
8101460,4.54945e+08,-7.35811e+08,-253250,0.012041,-0.0637496,0.416309,0.127409,-1.57429,0,0.142798,-1.48085,0.0420541,187,100,1.89339,-1.17698,0
8338114,4.54945e+08,-7.35811e+08,-253250,-0.00276575,0.0583174,0.427708,0.109956,-1.54462,0,0.140151,-1.57325,0.0306553,173,106,2.02381,-1.30381,0
8677500,4.54945e+08,-7.35811e+08,-253250,-0.038741,0.170592,0.424777,0.115192,-1.54811,0,0.181362,-1.68901,0.0335855,169,104,2.0902,-1.06706,0
8942132,4.54945e+08,-7.35811e+08,-253250,-0.0478769,0.20184,0.434838,0.122173,-1.5708,-0.00174533,0.19748,-1.74295,0.0217793,174,108,1.90448,-0.919001,0
9246957,4.54945e+08,-7.35811e+08,-253250,-0.0289833,0.253111,0.478464,0.101229,-1.56207,0.00174533,0.157642,-1.78549,-0.0183557,185,109,1.85996,-0.927653,0
9487141,4.54945e+08,-7.35811e+08,-253250,-0.0208216,0.243988,0.490089,0.0925025,-1.58825,0.00349066,0.140754,-1.80255,-0.0282357,186,112,1.63775,-0.977955,0
9785215,4.54945e+08,-7.35811e+08,-253250,0.00341233,0.095107,0.494159,0.102974,-1.58301,0.00174533,0.126992,-1.64843,-0.034051,184,118,1.59694,-1.21119,0
10035710,4.54945e+08,-7.35811e+08,-253250,0.0135749,0.0742069,0.494465,0.0872665,-1.58476,0,0.101121,-1.62928,-0.0361018,189,121,1.5133,-1.26597,0
10383818,4.54945e+08,-7.35811e+08,-253250,0.0480751,-0.0646141,0.476477,0.0907571,-1.5708,-0.00174533,0.0701117,-1.47649,-0.0198599,190,111,1.70261,-1.52788,0
10648416,4.54945e+08,-7.35811e+08,-253250,0.0520144,-0.0727544,0.479996,0.0890118,-1.55683,0.00174533,0.0644271,-1.45439,-0.0198874,178,110,1.81499,-1.70365,0
10975844,4.54945e+08,-7.35811e+08,-253250,0.0496358,-0.0594695,0.483353,0.0837758,-1.57429,0,0.0615696,-1.48513,-0.0249897,177,113,1.66016,-1.70552,0
11251931,4.54945e+08,-7.35811e+08,-253250,0.0170122,0.070619,0.499719,0.0907571,-1.57429,0,0.101175,-1.61522,-0.0413561,181,118,1.62384,-1.3794,0
11580581,4.54945e+08,-7.35811e+08,-253250,0.00112081,0.13257,0.506618,0.0959931,-1.56207,0.00174533,0.122302,-1.66495,-0.0465093,173,119,1.71847,-1.32425,0
11845344,4.54945e+08,-7.35811e+08,-253250,-0.0350825,0.232513,0.493266,0.102974,-1.5708,-0.00174533,0.165487,-1.77362,-0.036648,177,122,1.66767,-0.976346,0
12135863,4.54945e+08,-7.35811e+08,-253250,-0.0350825,0.232513,0.493266,0.10472,-1.57429,-0.00174533,0.167232,-1.77711,-0.036648,174,117,1.71142,-0.995973,0
12392893,4.54945e+08,-7.35811e+08,-253250,0.00126957,0.190501,0.512635,0.0785398,-1.56731,0,0.1047,-1.72812,-0.0542721,173,110,1.75651,-1.31723,0
12722756,4.54945e+08,-7.35811e+08,-253250,0.0167782,0.0498676,0.500144,0.101229,-1.56382,0,0.111881,-1.58399,-0.0417814,176,123,1.65377,-1.43526,0
12984981,4.54945e+08,-7.35811e+08,-253250,0.030389,-0.00805301,0.50235,0.102974,-1.56382,0.00174533,0.100015,-1.52607,-0.0422413,179,109,1.8142,-1.49625,0
13266447,4.54945e+08,-7.35811e+08,-253250,0.030389,-0.00805301,0.50235,0.122173,-1.56382,0,0.119214,-1.52607,-0.0439867,181,98,1.96641,-1.42785,0
13528836,4.54945e+08,-7.35811e+08,-253250,0.041273,-0.0328272,0.486461,0.0942478,-1.57952,0,0.0804044,-1.51701,-0.0280981,175,107,1.72022,-1.63795,0
13836565,4.54945e+08,-7.35811e+08,-253250,0.0216586,0.126596,0.49817,0.0733038,-1.55683,0.00174533,0.0790749,-1.65374,-0.0380613,169,106,1.85431,-1.56542,0
14110658,4.54945e+08,-7.35811e+08,-253250,0.0216586,0.126596,0.49817,0.0523599,-1.56207,0.00174533,0.0581309,-1.65898,-0.0380613,178,103,1.81593,-1.4904,0
14427391,4.54945e+08,-7.35811e+08,-253250,0.0216586,0.126596,0.49817,0.0331613,-1.5708,-0.00349066,0.0389323,-1.6677,-0.0432973,184,111,1.62574,-1.45741,0
14700336,4.54945e+08,-7.35811e+08,-253250,0.0216586,0.126596,0.49817,0.0122173,-1.56731,0,0.0179884,-1.66421,-0.0398066,181,106,1.68036,-1.52243,0
15018001,4.54945e+08,-7.35811e+08,-253250,0.00537383,0.40689,0.567851,0.0139626,-1.54985,0,0.0360185,-1.92705,-0.109488,174,112,1.70011,-1.24751,0
15278470,4.54945e+08,-7.35811e+08,-253250,0.00849883,0.393901,0.576503,0.0139626,-1.57778,-0.00174533,0.0328935,-1.94199,-0.119886,163,111,1.53442,-1.37413,0
15558762,4.54945e+08,-7.35811e+08,-253250,0.00849883,0.393901,0.576503,0.0645772,-1.5708,0,0.083508,-1.93501,-0.11814,152,85,1.97795,-1.39271,0
15818872,4.54945e+08,-7.35811e+08,-253250,0.00849883,0.393901,0.576503,0.101229,-1.57778,-0.00174533,0.12016,-1.94199,-0.119886,145,95,1.88816,-1.41063,0
16144204,4.54945e+08,-7.35811e+08,-253250,0.0129861,0.125289,0.570532,0.120428,-1.56731,0.00349066,0.134871,-1.66291,-0.108678,141,98,1.99756,-1.66963,0
16411572,4.54945e+08,-7.35811e+08,-253250,0.0557471,-0.0164036,0.575152,0.10821,-1.56207,0,0.079893,-1.51598,-0.116789,142,90,2.099,-2.13649,0
16706773,4.54945e+08,-7.35811e+08,-253250,0.0526815,-0.00132082,0.574736,0.115192,-1.55334,-0.00174533,0.0899399,-1.52233,-0.118119,146,101,2.0269,-2.05932,0
16971835,4.54945e+08,-7.35811e+08,-253250,-0.0211531,0.0424816,0.585313,0.188496,-1.56731,0,0.237078,-1.5801,-0.126951,173,100,2.02947,-0.963704,0
17285311,4.54945e+08,-7.35811e+08,-253250,-0.0211531,0.0424816,0.585313,0.364774,-1.56032,0,0.413357,-1.57312,-0.126951,182,110,2.12212,-0.551323,0
17556761,4.54945e+08,-7.35811e+08,-253250,-0.288671,0.0400736,0.637118,0.446804,-1.57429,0.00174533,0.762905,-1.58467,-0.17701,183,117,1.89853,1.69913,0
17872121,4.54945e+08,-7.35811e+08,-253250,-0.239487,0.0597138,0.646377,0.436332,-1.56382,0.00174533,0.703249,-1.59384,-0.186268,181,109,2.04579,1.34783,0
18145203,4.54945e+08,-7.35811e+08,-253250,-0.239487,0.0597138,0.646377,0.3735,-1.55334,0,0.640417,-1.58337,-0.188014,199,112,1.94097,1.35333,0
18497434,4.54945e+08,-7.35811e+08,-253250,0.0500844,0.0904128,0.622567,0.125664,-1.5708,-0.00349066,0.103009,-1.63152,-0.167695,241,115,1.63226,-0.815471,0
19098704,4.54945e+08,-7.35811e+08,-253250,0.187324,0.105384,0.626421,-0.137881,-1.55683,-0.00349066,-0.297775,-1.63253,-0.171549,344,116,1.80724,-0.985485,0
19959310,4.54945e+08,-7.35811e+08,-253250,-0.0442014,0.067475,0.623573,0.185005,-1.54462,0.00174533,0.256636,-1.5824,-0.163465,139,106,2.17987,-1.16023,0
20280609,4.54945e+08,-7.35811e+08,-253250,-0.0442014,0.067475,0.623573,0.314159,-1.57952,0.00174533,0.38579,-1.61731,-0.163465,103,107,2.2846,-1.2513,0
20548493,4.54945e+08,-7.35811e+08,-253250,-0.0442014,0.067475,0.623573,0.349066,-1.57952,0,0.420697,-1.61731,-0.16521,84,101,2.48696,-1.33933,0
20868946,4.54945e+08,-7.35811e+08,-253250,-0.18326,0.0659993,0.650005,0.26529,-1.57952,0.00174533,0.47598,-1.61583,-0.189897,94,98,2.34328,-0.261048,0
21131932,4.54945e+08,-7.35811e+08,-253250,-0.18326,0.0659993,0.650005,0.120428,-1.56207,-0.00174533,0.331118,-1.59838,-0.193387,178,110,1.81102,0.201889,0
21399704,4.54945e+08,-7.35811e+08,-253250,-0.18326,0.0659993,0.650005,-0.0541052,-1.57429,0,0.156585,-1.6106,-0.191642,236,118,1.35383,0.526569,0
22013759,4.54945e+08,-7.35811e+08,-253250,-0.18326,0.0659993,0.650005,-0.205949,-1.56382,-0.0122173,0.00474103,-1.60013,-0.203859,286,120,1.27601,0.868098,0
22272665,4.54945e+08,-7.35811e+08,-253250,0.170713,0.126551,0.397728,-0.153589,-1.55858,-0.00349066,-0.296872,-1.65544,0.0571443,212,111,1.1916,-2.62746,0
22599285,4.54945e+08,-7.35811e+08,-253250,0.106473,0.138517,0.290811,-0.0575959,-1.5708,-0.015708,-0.13664,-1.67963,0.151844,153,110,1.20978,-2.80599,0
22875181,4.54945e+08,-7.35811e+08,-253250,0.0339626,0.133207,0.205244,-0.0122173,-1.54985,0,-0.0187502,-1.65337,0.253119,85,102,1.75036,-3.03944,0
23144053,4.54945e+08,-7.35811e+08,-253250,0.0506227,0.118429,0.272929,-0.0122173,-1.56731,0,-0.0354104,-1.65605,0.185433,39,97,1.63714,-3.66774,0
23478508,4.54945e+08,-7.35811e+08,-253250,0.0506227,0.118429,0.272929,0.0383972,-1.55683,0.00698132,0.0152042,-1.64557,0.192415,70,95,1.91156,-3.19875,0
23746679,4.54945e+08,-7.35811e+08,-253250,0.0506227,0.118429,0.272929,0.0785398,-1.58825,0.00349066,0.0553468,-1.67699,0.188924,81,99,1.75652,-2.96758,0
24014970,4.54945e+08,-7.35811e+08,-253250,0.0156843,0.105417,0.692264,0.101229,-1.58476,0.00698132,0.112974,-1.66049,-0.22692,136,111,1.69106,-1.73976,0
24272274,4.54945e+08,-7.35811e+08,-253250,0.0156843,0.105417,0.692264,0.137881,-1.54985,0,0.149626,-1.62558,-0.233901,137,104,2.04791,-1.68023,0
24533910,4.54945e+08,-7.35811e+08,-253250,0.0156843,0.105417,0.692264,0.141372,-1.58476,0.00872665,0.153117,-1.66049,-0.225174,140,110,1.77426,-1.61864,0
24809389,4.54945e+08,-7.35811e+08,-253250,-0.0146348,0.0880598,0.899828,0.158825,-1.54287,-0.00174533,0.200889,-1.60124,-0.44321,164,123,1.77023,-1.096,0
25127242,4.54945e+08,-7.35811e+08,-253250,-0.0146348,0.0880598,0.899828,0.13439,-1.55334,-0.00523599,0.176455,-1.61171,-0.446701,171,117,1.71867,-1.04559,0
25398402,4.54945e+08,-7.35811e+08,-253250,0.0149288,0.105674,0.717766,0.115192,-1.56731,-0.00872665,0.127693,-1.64329,-0.26813,184,115,1.68136,-1.17768,0
25662595,4.54945e+08,-7.35811e+08,-253250,0.0149288,0.105674,0.717766,0.0785398,-1.5708,-0.00698132,0.0910407,-1.64678,-0.266385,193,115,1.60217,-1.12881,0
26227834,4.54945e+08,-7.35811e+08,-253250,0.0329215,0.0908023,0.561081,0.0471239,-1.55683,-0.00174533,0.041632,-1.61795,-0.104463,195,122,1.59212,-1.38356,0
26495587,4.54945e+08,-7.35811e+08,-253250,0.0329215,0.0908023,0.561081,0.0279253,-1.55334,-0.00349066,0.0224334,-1.61446,-0.106209,202,106,1.7733,-1.32873,0
26759236,4.54945e+08,-7.35811e+08,-253250,0.0451449,0.0662844,0.481464,0.0436332,-1.56207,0.00174533,0.025918,-1.59867,-0.0213554,190,115,1.63673,-1.57057,0
27035696,4.54945e+08,-7.35811e+08,-253250,0.0451449,0.0662844,0.481464,0.0698132,-1.5324,0.00174533,0.0520979,-1.569,-0.0213554,178,113,1.89556,-1.68622,0
27366967,4.54945e+08,-7.35811e+08,-253250,0.0451449,0.0662844,0.481464,0.101229,-1.56382,0.00349066,0.0835139,-1.60041,-0.0196101,171,118,1.69532,-1.70595,0
27630109,4.54945e+08,-7.35811e+08,-253250,0.0060017,0.0754291,0.767412,0.115192,-1.5708,0.00523599,0.13662,-1.61654,-0.303814,157,117,1.69179,-1.43667,0
27970959,4.54945e+08,-7.35811e+08,-253250,-0.0123255,0.0910117,0.83369,0.141372,-1.56207,0,0.181127,-1.62339,-0.375327,153,120,1.71079,-1.26165,0
31550752,4.54945e+08,-7.35811e+08,-253250,0.000809932,0.315469,0.732064,0.0855211,-1.58476,0,0.112141,-1.87054,-0.273701,168,131,1.31217,-0.954187,0
31819626,4.54945e+08,-7.35811e+08,-253250,0.000809932,0.315469,0.732064,0.0261799,-1.55858,-0.00174533,0.0527997,-1.84436,-0.275447,174,121,1.48225,-0.967854,0
32166393,4.54945e+08,-7.35811e+08,-253250,0.000809932,0.315469,0.732064,0.0890118,-1.56382,0.010472,0.115632,-1.8496,-0.263229,183,129,1.46255,-0.785681,0
32437969,4.54945e+08,-7.35811e+08,-253250,0.000809932,0.315469,0.732064,0.102974,-1.5708,0.00349066,0.129594,-1.85658,-0.270211,192,117,1.55387,-0.640028,0
32709122,4.54945e+08,-7.35811e+08,-253250,0.0118167,0.0638476,0.988691,0.137881,-1.58476,0.0122173,0.153494,-1.61892,-0.518111,192,127,1.43845,-1.02183,0
32984475,4.54945e+08,-7.35811e+08,-253250,0.00723877,0.0688373,1.01628,0.144862,-1.57952,0.00523599,0.165053,-1.61867,-0.552679,158,109,1.71695,-1.31866,0
33312590,4.54945e+08,-7.35811e+08,-253250,0.00299362,0.0703937,0.982293,0.13439,-1.58301,-0.010472,0.158826,-1.62372,-0.534402,153,117,1.57028,-1.4012,0
33578443,4.54945e+08,-7.35811e+08,-253250,0.00478946,0.0738846,0.656216,0.125664,-1.55858,-0.00872665,0.148304,-1.60278,-0.20658,177,125,1.66394,-1.25449,0
33909586,4.54945e+08,-7.35811e+08,-253250,0.0055527,0.0775354,0.613271,0.0802851,-1.58825,-0.00349066,0.102162,-1.6361,-0.158398,188,109,1.60309,-1.17414,0
34179045,4.54945e+08,-7.35811e+08,-253250,0.0055527,0.0775354,0.613271,0.0680678,-1.58476,0,0.0899448,-1.63261,-0.154908,192,117,1.51634,-1.15394,0
34497267,4.54945e+08,-7.35811e+08,-253250,0.0154447,0.0598191,0.605169,0.10472,-1.58301,0.00523599,0.116705,-1.61314,-0.14157,195,107,1.69657,-1.13369,0
34767819,4.54945e+08,-7.35811e+08,-253250,0.0121783,0.0536488,0.79662,0.125664,-1.57429,0.010472,0.140915,-1.59825,-0.327785,189,105,1.78917,-1.10288,0
35036478,4.54945e+08,-7.35811e+08,-253250,0.0121783,0.0536488,0.79662,0.120428,-1.58825,0.00872665,0.135679,-1.61221,-0.32953,186,113,1.6058,-1.15892,0
35307691,4.54945e+08,-7.35811e+08,-253250,0.0174064,0.057814,0.883708,0.115192,-1.5708,0.00698132,0.125215,-1.59892,-0.418364,167,102,1.85083,-1.39215,0
