Timestamp,Latitude,Longitude,Altitude,Plane Roll,Plane Pitch,Plane Yaw,Gimbal Roll,Gimbal Pitch,Gimbal Yaw,Gimbal Delta Roll,Gimbal Delta Pitch,Gimbal Delta Yaw,X in frame,Y in frame,Estimated X,Estimated Y,Estimated Z
6247028,0,0,0,0,0,0,-0.0279253,-0.993092,0.443314,-0.0279253,-0.993092,0.443314,337,93,6.15853,3.17933,0
6626634,0,0,0,0,0,0,-0.0314159,-0.984366,0.481711,-0.0314159,-0.984366,0.481711,312,122,5.67012,2.74385,0
6888961,0,0,0,0,0,0,-0.0279253,-0.977384,0.488692,-0.0279253,-0.977384,0.488692,289,144,5.42402,2.26078,0
7222725,0,0,0,0,0,0,-0.0314159,-0.970403,0.488692,-0.0314159,-0.970403,0.488692,273,157,5.34161,1.93477,0
7483211,0,0,0,0,0,0,-0.0279253,-0.968658,0.486947,-0.0279253,-0.968658,0.486947,261,169,5.20637,1.66341,0
7812528,0,0,0,0,0,0,-0.0279253,-0.970403,0.483456,-0.0279253,-0.970403,0.483456,250,175,5.15198,1.43412,0
8086978,0,0,0,0,0,0,-0.0279253,-0.970403,0.481711,-0.0279253,-0.970403,0.481711,241,182,5.07947,1.24578,0
8346807,0,0,0,0,0,0,-0.0279253,-0.968658,0.476475,-0.0279253,-0.968658,0.476475,241,186,5.02599,1.19689,0
8621005,0,0,0,0,0,0,-0.0244346,-0.959931,0.450295,-0.0244346,-0.959931,0.450295,241,189,5.08509,1.08048,0
8870349,0,0,0,0,0,0,-0.0244346,-0.95295,0.434587,-0.0244346,-0.95295,0.434587,242,190,5.14328,1.03217,0
9162389,0,0,0,0,0,0,-0.0244346,-0.923279,0.42586,-0.0244346,-0.923279,0.42586,243,189,5.46332,1.10712,0
9682110,0,0,0,0,0,0,-0.0244346,-0.918043,0.382227,-0.0244346,-0.918043,0.382227,244,190,5.53469,0.89508,8.88178e-16
9969322,0,0,0,0,0,0,-0.0244346,-0.918043,0.371755,-0.0244346,-0.918043,0.371755,246,190,5.53311,0.867954,8.88178e-16
10236670,0,0,0,0,0,0,-0.0244346,-0.916298,0.366519,-0.0244346,-0.916298,0.366519,260,195,5.37701,1.02739,0
10504377,0,0,0,0,0,0,-0.0244346,-0.916298,0.359538,-0.0244346,-0.916298,0.359538,260,202,5.23913,0.950794,0
10761539,0,0,0,0,0,0,-0.0226893,-0.912807,0.349066,-0.0226893,-0.912807,0.349066,269,217,4.94018,0.960372,0
11082876,0,0,0,0,0,0,-0.0226893,-0.914553,0.34383,-0.0226893,-0.914553,0.34383,281,216,4.8907,1.11164,0
11342161,0,0,0,0,0,0,-0.0226893,-0.918043,0.345575,-0.0226893,-0.918043,0.345575,282,216,4.85068,1.12466,0
11596382,0,0,0,0,0,0,-0.0226893,-0.921534,0.347321,-0.0226893,-0.921534,0.347321,285,217,4.78201,1.16104,0
11951852,0,0,0,0,0,0,-0.0226893,-0.916298,0.331613,-0.0226893,-0.916298,0.331613,289,218,4.81162,1.15469,0
12216782,0,0,0,0,0,0,-0.0226893,-0.914553,0.324631,-0.0226893,-0.914553,0.324631,292,221,4.7647,1.1544,0
12472657,0,0,0,0,0,0,-0.0226893,-0.914553,0.322886,-0.0226893,-0.914553,0.322886,292,217,4.84424,1.16765,0
12836006,0,0,0,0,0,0,-0.0226893,-0.923279,0.31765,-0.0226893,-0.923279,0.31765,289,213,4.85801,1.09538,0
13103578,0,0,0,0,0,0,-0.0226893,-0.92677,0.31765,-0.0226893,-0.92677,0.31765,292,214,4.79222,1.12492,0
13355865,0,0,0,0,0,0,-0.0226893,-0.928515,0.31765,-0.0226893,-0.928515,0.31765,298,217,4.69214,1.19236,0
13612547,0,0,0,0,0,0,-0.0226893,-0.93026,0.319395,-0.0226893,-0.93026,0.319395,299,217,4.66944,1.2102,0
13867964,0,0,0,0,0,0,-0.0226893,-0.932006,0.319395,-0.0226893,-0.932006,0.319395,300,214,4.7059,1.23613,0
14124861,0,0,0,0,0,0,-0.0244346,-0.932006,0.321141,-0.0244346,-0.932006,0.321141,300,210,4.78018,1.26527,0
14402894,0,0,0,0,0,0,-0.0226893,-0.938987,0.321141,-0.0226893,-0.938987,0.321141,300,209,4.73387,1.25175,0
14647496,0,0,0,0,0,0,-0.0226893,-0.940732,0.321141,-0.0226893,-0.940732,0.321141,300,208,4.73661,1.25226,0
14920741,0,0,0,0,0,0,-0.0226893,-0.940732,0.319395,-0.0226893,-0.940732,0.319395,300,207,4.758,1.24956,0
15184177,0,0,0,0,0,0,-0.0226893,-0.940732,0.319395,-0.0226893,-0.940732,0.319395,299,206,4.78166,1.2403,0
15453363,0,0,0,0,0,0,-0.0226893,-0.942478,0.319395,-0.0226893,-0.942478,0.319395,300,202,4.83819,1.27209,0
15789889,0,0,0,0,0,0,-0.0226893,-0.942478,0.319395,-0.0226893,-0.942478,0.319395,299,201,4.86213,1.2628,0
16046333,0,0,0,0,0,0,-0.0226893,-0.944223,0.319395,-0.0226893,-0.944223,0.319395,300,201,4.84095,1.2726,0
16290640,0,0,0,0,0,0,-0.0191986,-0.944223,0.319395,-0.0191986,-0.944223,0.319395,300,201,4.84157,1.27497,0
16559470,0,0,0,0,0,0,-0.0191986,-0.947714,0.31765,-0.0191986,-0.947714,0.31765,301,201,4.80595,1.2714,0
16820068,0,0,0,0,0,0,-0.0191986,-0.947714,0.31765,-0.0191986,-0.947714,0.31765,301,201,4.80595,1.2714,0
17083519,0,0,0,0,0,0,-0.0191986,-0.947714,0.315905,-0.0191986,-0.947714,0.315905,300,201,4.81258,1.24835,0
17421223,0,0,0,0,0,0,-0.0191986,-0.951204,0.315905,-0.0191986,-0.951204,0.315905,300,200,4.79866,1.24396,0
17676751,0,0,0,0,0,0,-0.0226893,-0.95295,0.314159,-0.0226893,-0.95295,0.314159,301,198,4.81798,1.25398,0
18010608,0,0,0,0,0,0,-0.0191986,-0.954695,0.312414,-0.0191986,-0.954695,0.312414,301,198,4.80402,1.24326,0
18276542,0,0,0,0,0,0,-0.0191986,-0.954695,0.314159,-0.0191986,-0.954695,0.314159,301,198,4.80184,1.25154,0
18530859,0,0,0,0,0,0,-0.0191986,-0.954695,0.314159,-0.0191986,-0.954695,0.314159,301,198,4.80184,1.25154,0
18799895,0,0,0,0,0,0,-0.0191986,-0.954695,0.314159,-0.0191986,-0.954695,0.314159,302,194,4.87523,1.28843,0
19050987,0,0,0,0,0,0,-0.0191986,-0.966912,0.312414,-0.0191986,-0.966912,0.312414,302,194,4.76062,1.24546,0
19421470,0,0,0,0,0,0,-0.0191986,-0.963422,0.310669,-0.0191986,-0.963422,0.310669,302,193,4.81527,1.25243,0
19685974,0,0,0,0,0,0,-0.0191986,-0.963422,0.310669,-0.0191986,-0.963422,0.310669,302,193,4.81527,1.25243,0
19933165,0,0,0,0,0,0,-0.015708,-0.961676,0.312414,-0.015708,-0.961676,0.312414,302,193,4.83014,1.2684,0
20205551,0,0,0,0,0,0,-0.0226893,-0.954695,0.314159,-0.0226893,-0.954695,0.314159,302,193,4.89445,1.29126,0
20559204,0,0,0,0,0,0,-0.0191986,-0.938987,0.319395,-0.0191986,-0.938987,0.319395,303,186,5.18015,1.42258,0
20814324,0,0,0,0,0,0,-0.015708,-0.918043,0.31765,-0.015708,-0.918043,0.31765,304,188,5.35352,1.4856,0
21200184,0,0,0,0,0,0,-0.015708,-0.907571,0.310669,-0.015708,-0.907571,0.310669,304,188,5.47543,1.48158,-8.88178e-16
21468220,0,0,0,0,0,0,-0.015708,-0.898845,0.298451,-0.015708,-0.898845,0.298451,303,190,5.54851,1.41427,0
21835480,0,0,0,0,0,0,-0.0122173,-0.893609,0.244346,-0.0122173,-0.893609,0.244346,301,199,5.48324,1.05653,0
22103134,0,0,0,0,0,0,-0.0122173,-0.893609,0.230383,-0.0122173,-0.893609,0.230383,301,209,5.282,0.937805,0
22357773,0,0,0,0,0,0,-0.0122173,-0.90059,0.223402,-0.0122173,-0.90059,0.223402,302,219,5.00693,0.86261,0
22611473,0,0,0,0,0,0,-0.0122173,-0.912807,0.225147,-0.0122173,-0.912807,0.225147,306,225,4.75487,0.883571,0
22879293,0,0,0,0,0,0,-0.015708,-0.928515,0.240855,-0.015708,-0.928515,0.240855,313,230,4.47601,1.00517,0
23136459,0,0,0,0,0,0,-0.015708,-0.98262,0.260054,-0.015708,-0.98262,0.260054,330,231,3.91059,1.20227,0
23414084,0,0,0,0,0,0,-0.015708,-0.97913,0.263545,-0.015708,-0.97913,0.263545,334,229,3.95542,1.28913,0
23678577,0,0,0,0,0,0,-0.015708,-0.975639,0.261799,-0.015708,-0.975639,0.261799,334,219,4.16091,1.33787,0
23930042,0,0,0,0,0,0,-0.015708,-0.980875,0.261799,-0.015708,-0.980875,0.261799,329,213,4.23943,1.28199,0
24206683,0,0,0,0,0,0,-0.015708,-0.986111,0.260054,-0.015708,-0.986111,0.260054,321,181,4.81832,1.2983,0
24565076,0,0,0,0,0,0,-0.015708,-0.986111,0.260054,-0.015708,-0.986111,0.260054,320,174,4.95954,1.31802,0
24832495,0,0,0,0,0,0,-0.015708,-0.986111,0.260054,-0.015708,-0.986111,0.260054,320,179,4.86099,1.29318,0
25079286,0,0,0,0,0,0,-0.015708,-0.986111,0.260054,-0.015708,-0.986111,0.260054,320,178,4.88058,1.29812,0
25441533,0,0,0,0,0,0,-0.015708,-0.987856,0.261799,-0.015708,-0.987856,0.261799,321,174,4.93628,1.33706,0
25699219,0,0,0,0,0,0,-0.015708,-0.987856,0.260054,-0.015708,-0.987856,0.260054,321,173,4.95842,1.33356,0
26024465,0,0,0,0,0,0,-0.0122173,-0.989602,0.261799,-0.0122173,-0.989602,0.261799,321,173,4.93776,1.34096,0
26280781,0,0,0,0,0,0,-0.0122173,-0.989602,0.261799,-0.0122173,-0.989602,0.261799,321,173,4.93776,1.34096,0
26545028,0,0,0,0,0,0,-0.0122173,-0.989602,0.261799,-0.0122173,-0.989602,0.261799,321,173,4.93776,1.34096,0
26800336,0,0,0,0,0,0,-0.0122173,-0.991347,0.261799,-0.0122173,-0.991347,0.261799,321,173,4.92056,1.33635,0
27097769,0,0,0,0,0,0,-0.0122173,-0.993092,0.260054,-0.0122173,-0.993092,0.260054,321,173,4.90573,1.3233,0
27349646,0,0,0,0,0,0,-0.0122173,-0.993092,0.260054,-0.0122173,-0.993092,0.260054,321,171,4.94516,1.3334,0
27684815,0,0,0,0,0,0,-0.015708,-0.993092,0.260054,-0.015708,-0.993092,0.260054,321,171,4.94626,1.32982,0
27952288,0,0,0,0,0,0,-0.0122173,-0.993092,0.260054,-0.0122173,-0.993092,0.260054,320,170,4.96872,1.32339,0
28211704,0,0,0,0,0,0,-0.015708,-0.993092,0.260054,-0.015708,-0.993092,0.260054,321,169,4.98594,1.33987,0
28483346,0,0,0,0,0,0,-0.015708,-0.994838,0.258309,-0.015708,-0.994838,0.258309,321,169,4.97092,1.32669,0
28812039,0,0,0,0,0,0,-0.015708,-0.993092,0.258309,-0.015708,-0.993092,0.258309,321,169,4.98828,1.33127,0
29080312,0,0,0,0,0,0,-0.0122173,-0.993092,0.256563,-0.0122173,-0.993092,0.256563,321,169,4.98948,1.32637,0
29353044,0,0,0,0,0,0,-0.0122173,-0.986111,0.251327,-0.0122173,-0.986111,0.251327,321,169,5.06642,1.31854,0
29611261,0,0,0,0,0,0,-0.0122173,-0.98262,0.247837,-0.0122173,-0.98262,0.247837,321,169,5.10638,1.31002,0
29868520,0,0,0,0,0,0,-0.0122173,-0.98262,0.246091,-0.0122173,-0.98262,0.246091,321,169,5.10866,1.30121,0
30202366,0,0,0,0,0,0,-0.0122173,-0.989602,0.246091,-0.0122173,-0.989602,0.246091,321,169,5.03807,1.28347,0
30462359,0,0,0,0,0,0,-0.0122173,-0.998328,0.237365,-0.0122173,-0.998328,0.237365,324,172,4.89251,1.2503,0
30783144,0,0,0,0,0,0,-0.0122173,-1.00531,0.232129,-0.0122173,-1.00531,0.232129,325,174,4.78883,1.2146,0
31041996,0,0,0,0,0,0,-0.0122173,-1.0088,0.228638,-0.0122173,-1.0088,0.228638,325,175,4.7403,1.18572,0
31305171,0,0,0,0,0,0,-0.0122173,-1.01404,0.228638,-0.0122173,-1.01404,0.228638,325,174,4.7095,1.17817,0
