Timestamp,Latitude,Longitude,Altitude,Plane Roll,Plane Pitch,Plane Yaw,Gimbal Roll,Gimbal Pitch,Gimbal Yaw,Gimbal Delta Roll,Gimbal Delta Pitch,Gimbal Delta Yaw,X in frame,Y in frame,Estimated X,Estimated Y,Estimated Z
2164270,0,0,0,0,0,0,-0.0122173,-0.93026,0.0488692,-0.0122173,-0.93026,0.0488692,337,181,1.83593,0.157838,0
2524384,0,0,0,0,0,0,-0.010472,-0.93026,0.0471239,-0.010472,-0.93026,0.0471239,337,181,1.83601,0.155261,0
2820428,0,0,0,0,0,0,-0.010472,-0.932006,0.0471239,-0.010472,-0.932006,0.0471239,337,180,1.83691,0.155249,0
3079752,0,0,0,0,0,0,-0.010472,-0.933751,0.0471239,-0.010472,-0.933751,0.0471239,337,180,1.83069,0.154813,0
3369455,0,0,0,0,0,0,-0.0122173,-0.935496,0.0471239,-0.0122173,-0.935496,0.0471239,337,180,1.82469,0.153846,0
4665553,0,0,0,0,0,0,-0.0122173,-0.944223,0.0488692,-0.0122173,-0.944223,0.0488692,337,180,1.79373,0.154735,2.22045e-16
4947834,0,0,0,0,0,0,-0.0122173,-0.944223,0.0488692,-0.0122173,-0.944223,0.0488692,337,180,1.79373,0.154735,2.22045e-16
5232125,0,0,0,0,0,0,-0.0122173,-0.944223,0.0471239,-0.0122173,-0.944223,0.0471239,338,179,1.80082,0.157265,0
5504441,0,0,0,0,0,0,-0.0122173,-0.944223,0.0471239,-0.0122173,-0.944223,0.0471239,338,178,1.80782,0.157677,-2.22045e-16
5784192,0,0,0,0,0,0,-0.0122173,-0.942478,0.0471239,-0.0122173,-0.942478,0.0471239,337,177,1.82117,0.153346,2.22045e-16
6373797,0,0,0,0,0,0,-0.0122173,-0.944223,0.0471239,-0.0122173,-0.944223,0.0471239,336,173,1.84348,0.14934,0
6644348,0,0,0,0,0,0,-0.0122173,-0.944223,0.0471239,-0.0122173,-0.944223,0.0471239,337,173,1.84332,0.154548,0
6903795,0,0,0,0,0,0,-0.0122173,-0.944223,0.0471239,-0.0122173,-0.944223,0.0471239,337,173,1.84332,0.154548,0
7161406,0,0,0,0,0,0,-0.0122173,-0.944223,0.0471239,-0.0122173,-0.944223,0.0471239,337,173,1.84332,0.154548,0
7424233,0,0,0,0,0,0,-0.0122173,-0.944223,0.0471239,-0.0122173,-0.944223,0.0471239,337,173,1.84332,0.154548,0
8027298,0,0,0,0,0,0,-0.0122173,-0.945968,0.0471239,-0.0122173,-0.945968,0.0471239,337,173,1.83708,0.154113,-2.22045e-16
8303897,0,0,0,0,0,0,-0.0122173,-0.945968,0.0471239,-0.0122173,-0.945968,0.0471239,337,173,1.83708,0.154113,-2.22045e-16
8560719,0,0,0,0,0,0,-0.0122173,-0.944223,0.0453786,-0.0122173,-0.944223,0.0453786,337,173,1.84359,0.151432,0
8832009,0,0,0,0,0,0,-0.0122173,-0.947714,0.0471239,-0.0122173,-0.947714,0.0471239,337,173,1.83087,0.153679,0
9095308,0,0,0,0,0,0,-0.0122173,-0.949459,0.0453786,-0.0122173,-0.949459,0.0453786,337,173,1.82493,0.150163,2.22045e-16
9348691,0,0,0,0,0,0,-0.0122173,-0.949459,0.0453786,-0.0122173,-0.949459,0.0453786,336,172,1.83215,0.145366,0
9831665,0,0,0,0,0,0,-0.0122173,-0.951204,0.0436332,-0.0122173,-0.951204,0.0436332,337,172,1.82606,0.14705,0
10916232,0,0,0,0,0,0,-0.0122173,-0.95644,0.0436332,-0.0122173,-0.95644,0.0436332,337,172,1.80757,0.145827,0
11187381,0,0,0,0,0,0,-0.0122173,-0.95644,0.0418879,-0.0122173,-0.95644,0.0418879,337,169,1.82889,0.143868,0
11449007,0,0,0,0,0,0,-0.0122173,-0.95644,0.0418879,-0.0122173,-0.95644,0.0418879,337,169,1.82889,0.143868,0
11704386,0,0,0,0,0,0,-0.0122173,-0.95644,0.0418879,-0.0122173,-0.95644,0.0418879,337,169,1.82889,0.143868,0
11968274,0,0,0,0,0,0,-0.0122173,-0.95644,0.0418879,-0.0122173,-0.95644,0.0418879,336,168,1.83609,0.139045,0
12225217,0,0,0,0,0,0,-0.0122173,-0.95644,0.0418879,-0.0122173,-0.95644,0.0418879,337,165,1.85729,0.145344,0
12494178,0,0,0,0,0,0,-0.0122173,-0.95644,0.0418879,-0.0122173,-0.95644,0.0418879,337,165,1.85729,0.145344,0
12755348,0,0,0,0,0,0,-0.0122173,-0.958186,0.0418879,-0.0122173,-0.958186,0.0418879,337,165,1.85101,0.144939,0
13525343,0,0,0,0,0,0,-0.0122173,-0.959931,0.0418879,-0.0122173,-0.959931,0.0418879,337,165,1.84474,0.144536,0
13782872,0,0,0,0,0,0,-0.0122173,-0.959931,0.0401426,-0.0122173,-0.959931,0.0401426,337,165,1.84499,0.141417,0
14054841,0,0,0,0,0,0,-0.0122173,-0.959931,0.0401426,-0.0122173,-0.959931,0.0401426,337,165,1.84499,0.141417,0
14311652,0,0,0,0,0,0,-0.0122173,-0.959931,0.0401426,-0.0122173,-0.959931,0.0401426,338,165,1.84487,0.146615,0
14570116,0,0,0,0,0,0,-0.0122173,-0.959931,0.0401426,-0.0122173,-0.959931,0.0401426,337,164,1.8521,0.141773,-2.22045e-16
14826161,0,0,0,0,0,0,-0.0122173,-0.959931,0.0401426,-0.0122173,-0.959931,0.0401426,339,162,1.86615,0.152936,0
15086780,0,0,0,0,0,0,-0.0122173,-0.959931,0.0401426,-0.0122173,-0.959931,0.0401426,338,162,1.86627,0.147712,0
15341819,0,0,0,0,0,0,-0.0122173,-0.959931,0.0401426,-0.0122173,-0.959931,0.0401426,338,162,1.86627,0.147712,0
15601330,0,0,0,0,0,0,-0.0122173,-0.959931,0.0401426,-0.0122173,-0.959931,0.0401426,337,162,1.86639,0.142489,2.22045e-16
15855100,0,0,0,0,0,0,-0.0122173,-0.959931,0.0401426,-0.0122173,-0.959931,0.0401426,338,162,1.86627,0.147712,0
16116476,0,0,0,0,0,0,-0.0122173,-0.959931,0.0401426,-0.0122173,-0.959931,0.0401426,338,162,1.86627,0.147712,0
17903871,0,0,0,0,0,0,-0.0122173,-0.963422,0.0383972,-0.0122173,-0.963422,0.0383972,338,161,1.86105,0.144122,0
18168220,0,0,0,0,0,0,-0.0122173,-0.963422,0.0383972,-0.0122173,-0.963422,0.0383972,337,161,1.86116,0.138908,0
18424796,0,0,0,0,0,0,-0.0122173,-0.963422,0.0383972,-0.0122173,-0.963422,0.0383972,338,161,1.86105,0.144122,0
18682064,0,0,0,0,0,0,-0.0122173,-0.963422,0.0383972,-0.0122173,-0.963422,0.0383972,337,161,1.86116,0.138908,0
18938633,0,0,0,0,0,0,-0.0122173,-0.963422,0.0383972,-0.0122173,-0.963422,0.0383972,338,161,1.86105,0.144122,0
19194274,0,0,0,0,0,0,-0.0122173,-0.963422,0.0383972,-0.0122173,-0.963422,0.0383972,337,161,1.86116,0.138908,0
19446304,0,0,0,0,0,0,-0.0122173,-0.963422,0.0366519,-0.0122173,-0.963422,0.0366519,337,161,1.8614,0.135761,-2.22045e-16
19699127,0,0,0,0,0,0,-0.0122173,-0.963422,0.0349066,-0.0122173,-0.963422,0.0349066,338,161,1.86154,0.137828,0
19957230,0,0,0,0,0,0,-0.0122173,-0.961676,0.0349066,-0.0122173,-0.961676,0.0349066,337,161,1.86795,0.132976,0
20220311,0,0,0,0,0,0,-0.0122173,-0.959931,0.0349066,-0.0122173,-0.959931,0.0349066,337,161,1.8743,0.133341,0
20478333,0,0,0,0,0,0,-0.0122173,-0.959931,0.0349066,-0.0122173,-0.959931,0.0349066,338,161,1.8742,0.138573,0
20737724,0,0,0,0,0,0,-0.0122173,-0.95644,0.0366519,-0.0122173,-0.95644,0.0366519,338,161,1.88671,0.142516,0
21009993,0,0,0,0,0,0,-0.0122173,-0.95644,0.0366519,-0.0122173,-0.95644,0.0366519,338,161,1.88671,0.142516,0
21268049,0,0,0,0,0,0,-0.0122173,-0.95644,0.0349066,-0.0122173,-0.95644,0.0349066,339,162,1.87963,0.144232,2.22045e-16
21529607,0,0,0,0,0,0,-0.0122173,-0.95644,0.0349066,-0.0122173,-0.95644,0.0349066,339,164,1.86524,0.143551,-2.22045e-16
21800703,0,0,0,0,0,0,-0.0122173,-0.95644,0.0349066,-0.0122173,-0.95644,0.0349066,338,165,1.85817,0.137996,-2.22045e-16
22063019,0,0,0,0,0,0,-0.0122173,-0.95644,0.0349066,-0.0122173,-0.95644,0.0349066,338,165,1.85817,0.137996,-2.22045e-16
22336665,0,0,0,0,0,0,-0.0122173,-0.95644,0.0349066,-0.0122173,-0.95644,0.0349066,338,165,1.85817,0.137996,-2.22045e-16
22594993,0,0,0,0,0,0,-0.0122173,-0.95644,0.0349066,-0.0122173,-0.95644,0.0349066,338,165,1.85817,0.137996,-2.22045e-16
22852276,0,0,0,0,0,0,-0.0122173,-0.95644,0.0349066,-0.0122173,-0.95644,0.0349066,338,165,1.85817,0.137996,-2.22045e-16
23111059,0,0,0,0,0,0,-0.0122173,-0.95644,0.0331613,-0.0122173,-0.95644,0.0331613,338,165,1.85841,0.134854,-2.22045e-16
23370960,0,0,0,0,0,0,-0.0122173,-0.95644,0.0331613,-0.0122173,-0.95644,0.0331613,338,165,1.85841,0.134854,-2.22045e-16
23623152,0,0,0,0,0,0,-0.0122173,-0.95644,0.0331613,-0.0122173,-0.95644,0.0331613,338,165,1.85841,0.134854,-2.22045e-16
24106357,0,0,0,0,0,0,-0.0122173,-0.947714,0.0331613,-0.0122173,-0.947714,0.0331613,338,165,1.89018,0.136672,0
24372592,0,0,0,0,0,0,-0.0122173,-0.947714,0.0331613,-0.0122173,-0.947714,0.0331613,339,165,1.89009,0.141933,0
24643116,0,0,0,0,0,0,-0.0122173,-0.945968,0.0331613,-0.0122173,-0.945968,0.0331613,338,165,1.8966,0.13704,0
24888326,0,0,0,0,0,0,-0.0122173,-0.945968,0.0331613,-0.0122173,-0.945968,0.0331613,339,165,1.89651,0.14231,0
25161939,0,0,0,0,0,0,-0.0122173,-0.947714,0.0331613,-0.0122173,-0.947714,0.0331613,339,166,1.88283,0.1416,0
25418136,0,0,0,0,0,0,-0.0122173,-0.947714,0.0314159,-0.0122173,-0.947714,0.0314159,339,171,1.84712,0.136826,0
25679370,0,0,0,0,0,0,-0.0122173,-0.947714,0.0331613,-0.0122173,-0.947714,0.0331613,339,171,1.84688,0.139949,0
26097565,0,0,0,0,0,0,-0.0122173,-0.947714,0.0314159,-0.0122173,-0.947714,0.0314159,339,173,1.83291,0.136199,0
26367407,0,0,0,0,0,0,-0.0122173,-0.947714,0.0314159,-0.0122173,-0.947714,0.0314159,338,172,1.84008,0.131311,0
26636247,0,0,0,0,0,0,-0.0122173,-0.947714,0.0314159,-0.0122173,-0.947714,0.0314159,338,172,1.84008,0.131311,0
26884326,0,0,0,0,0,0,-0.0122173,-0.949459,0.0314159,-0.0122173,-0.949459,0.0314159,339,170,1.84799,0.136785,0
27152714,0,0,0,0,0,0,-0.0122173,-0.947714,0.0314159,-0.0122173,-0.947714,0.0314159,339,171,1.84712,0.136826,0
27414572,0,0,0,0,0,0,-0.0122173,-0.947714,0.0314159,-0.0122173,-0.947714,0.0314159,339,171,1.84712,0.136826,0
27673122,0,0,0,0,0,0,-0.0122173,-0.947714,0.0314159,-0.0122173,-0.947714,0.0314159,339,171,1.84712,0.136826,0
27936573,0,0,0,0,0,0,-0.0122173,-0.947714,0.0296706,-0.0122173,-0.947714,0.0296706,339,170,1.8545,0.134007,0
28371071,0,0,0,0,0,0,-0.0122173,-0.947714,0.0314159,-0.0122173,-0.947714,0.0314159,339,170,1.85427,0.137142,2.22045e-16
28637022,0,0,0,0,0,0,-0.0122173,-0.947714,0.0314159,-0.0122173,-0.947714,0.0314159,339,171,1.84712,0.136826,0
28899484,0,0,0,0,0,0,-0.0122173,-0.947714,0.0296706,-0.0122173,-0.947714,0.0296706,339,171,1.84736,0.133704,0
29164683,0,0,0,0,0,0,-0.0122173,-0.947714,0.0296706,-0.0122173,-0.947714,0.0296706,339,171,1.84736,0.133704,0
29427804,0,0,0,0,0,0,-0.0122173,-0.949459,0.0296706,-0.0122173,-0.949459,0.0296706,339,171,1.84111,0.133359,0
29697407,0,0,0,0,0,0,-0.0122173,-0.949459,0.0279253,-0.0122173,-0.949459,0.0279253,339,170,1.84846,0.130536,0
29956265,0,0,0,0,0,0,-0.0122173,-0.949459,0.0296706,-0.0122173,-0.949459,0.0296706,339,171,1.84111,0.133359,0
30860471,0,0,0,0,0,0,-0.0122173,-0.947714,0.0279253,-0.0122173,-0.947714,0.0279253,339,170,1.85474,0.130871,0
31134098,0,0,0,0,0,0,-0.0122173,-0.947714,0.0279253,-0.0122173,-0.947714,0.0279253,339,170,1.85474,0.130871,0
31400240,0,0,0,0,0,0,-0.0122173,-0.947714,0.0279253,-0.0122173,-0.947714,0.0279253,339,170,1.85474,0.130871,0
31658494,0,0,0,0,0,0,-0.0122173,-0.947714,0.0261799,-0.0122173,-0.947714,0.0261799,339,169,1.86213,0.128014,0
31919046,0,0,0,0,0,0,-0.0122173,-0.949459,0.0261799,-0.0122173,-0.949459,0.0261799,339,169,1.85583,0.127689,0
32180124,0,0,0,0,0,0,-0.0122173,-0.951204,0.0261799,-0.0122173,-0.951204,0.0261799,339,171,1.83533,0.126813,2.22045e-16
32437642,0,0,0,0,0,0,-0.0122173,-0.951204,0.0244346,-0.0122173,-0.951204,0.0244346,339,171,1.83555,0.123711,0
33056404,0,0,0,0,0,0,-0.0122173,-0.951204,0.0244346,-0.0122173,-0.951204,0.0244346,339,171,1.83555,0.123711,0
