Timestamp,Latitude,Longitude,Altitude,Plane Roll,Plane Pitch,Plane Yaw,Gimbal Roll,Gimbal Pitch,Gimbal Yaw,Gimbal Delta Roll,Gimbal Delta Pitch,Gimbal Delta Yaw,X in frame,Y in frame,Estimated X,Estimated Y,Estimated Z
2642001,4.54949e+08,-7.35807e+08,36440,0.126052,-0.0558983,-0.0233607,0.0663225,-1.5708,0.00174533,0.0665236,-1.57488,0.000299298,319,178,0.788593,0.0693093,0
3040540,4.54949e+08,-7.35807e+08,36440,0.126052,-0.0558983,-0.0233607,0.0663225,-1.56731,0,0.0665236,-1.57139,-0.00144603,320,173,0.867468,0.0838058,0
3304391,4.54949e+08,-7.35802e+08,74160,0.115071,0.165192,0.133258,0.0610865,-1.55334,0,0.0722681,-1.77851,-0.158065,321,180,0.820332,0.37082,0
3619093,4.54949e+08,-7.35802e+08,74160,0.115071,0.165192,0.133258,0.0314159,-1.5708,-0.00174533,0.0425975,-1.79597,-0.15981,321,174,0.790554,0.353459,0
3905934,4.54949e+08,-7.35802e+08,74160,0.115071,0.165192,0.133258,0.00698132,-1.55509,0,0.0181629,-1.78026,-0.158065,322,179,0.825657,0.34451,0
4189617,4.54949e+08,-7.35802e+08,79150,0.137965,0.270176,0.167113,0.020944,-1.58301,0.00174533,0.009232,-1.91317,-0.190174,321,174,0.714385,0.354925,0
4496884,4.54949e+08,-7.35802e+08,79150,0.127343,0.217453,0.172791,0.0296706,-1.57778,0.00174533,0.0285808,-1.85521,-0.195852,319,177,0.706552,0.356816,0
6875001,4.54949e+08,-7.35801e+08,89780,0.126619,0.0885234,0.20258,0.0698132,-1.56207,-0.00174533,0.0694469,-1.71057,-0.229132,317,175,0.842395,0.252405,0
7219353,4.54949e+08,-7.35801e+08,91370,0.110021,0.044006,0.256326,0.0802851,-1.57952,0,0.096517,-1.68351,-0.281133,307,187,0.583032,0.20945,0
7471188,4.54949e+08,-7.35801e+08,91370,0.123295,-0.0124027,0.261236,0.0610865,-1.54811,0,0.0640438,-1.59568,-0.286043,305,182,0.864227,0.00693984,0
7743935,4.54949e+08,-7.358e+08,91280,0.133011,-0.0377456,0.262367,0.0453786,-1.56731,0.00523599,0.03862,-1.58954,-0.281937,310,183,0.75822,-0.0432103,0
8006473,4.54949e+08,-7.358e+08,91280,0.133011,-0.0377456,0.262367,0.0418879,-1.5708,0,0.0351294,-1.59303,-0.287173,310,174,0.843346,-0.0447776,0
9981721,4.54949e+08,-7.358e+08,93680,0.170868,-0.016985,0.397258,0.0226893,-1.57778,-0.00523599,-0.0219257,-1.62077,-0.427301,325,170,0.92314,-0.0406026,0
10525066,4.54949e+08,-7.358e+08,95990,0.163912,-0.00754422,0.399943,0.0418879,-1.56731,-0.00174533,0.00422867,-1.61974,-0.426495,322,173,0.92538,0.00716171,0
10838958,4.5495e+08,-7.358e+08,97170,0.13231,0.183668,0.435037,0.0418879,-1.56731,0,0.0358307,-1.81095,-0.459844,314,167,0.786378,0.610314,0
11135767,4.5495e+08,-7.358e+08,98140,0.110581,0.25323,0.454101,0.0558505,-1.58301,0,0.0715221,-1.89622,-0.478908,311,178,0.442074,0.913024,0
11406235,4.5495e+08,-7.358e+08,99260,0.114862,0.290914,0.472129,0.0610865,-1.5708,0.00174533,0.0724768,-1.92169,-0.49519,312,164,0.642511,1.05273,0
11693525,4.5495e+08,-7.358e+08,99260,0.10902,0.353942,0.498984,0.0593412,-1.58825,0,0.0765739,-2.00217,-0.523791,304,178,0.275853,1.19475,0
11973280,4.5495e+08,-7.358e+08,100400,0.106257,0.373293,0.507421,0.0750492,-1.56207,-0.00174533,0.095045,-1.99534,-0.533973,311,184,0.311881,1.38012,0
12241462,4.5495e+08,-7.358e+08,100400,0.112441,0.363891,0.517771,0.0750492,-1.55858,0,0.0888613,-1.98245,-0.542578,311,184,0.347413,1.33908,0
12512044,4.5495e+08,-7.358e+08,101150,0.119789,0.323003,0.525052,0.0663225,-1.55509,0,0.0727859,-1.93807,-0.549858,319,180,0.462751,1.29079,0
12796304,4.5495e+08,-7.358e+08,101950,0.132039,0.21233,0.514844,0.0593412,-1.59174,0,0.0535552,-1.86405,-0.53965,316,181,0.394337,0.827448,0
13079079,4.5495e+08,-7.358e+08,102620,0.145195,0.157742,0.517191,0.0453786,-1.56207,0,0.0264361,-1.77979,-0.541997,319,179,0.681088,0.622815,0
13358106,4.5495e+08,-7.358e+08,102620,0.152728,0.120118,0.514439,0.0296706,-1.57429,0,0.00319518,-1.75438,-0.539245,321,177,0.691234,0.476875,0
13635310,4.5495e+08,-7.35799e+08,104370,0.161075,0.0270832,0.495713,0.0296706,-1.57778,0,-0.00515173,-1.66484,-0.52052,318,179,0.757616,0.107062,0
13911026,4.5495e+08,-7.35799e+08,104370,0.143053,-0.0610916,0.458405,0.0401426,-1.59174,0,0.0233428,-1.59063,-0.483212,318,181,0.672178,-0.0375485,0
14177578,4.5495e+08,-7.35799e+08,104370,0.125654,-0.059569,0.458206,0.0471239,-1.57429,-0.00174533,0.0477228,-1.5747,-0.484758,316,179,0.750733,0.0479294,0
14445406,4.5495e+08,-7.35799e+08,107090,0.112528,-0.00576522,0.467527,0.0349066,-1.57778,0.00174533,0.0486317,-1.63199,-0.490588,310,186,0.574037,0.188384,0
14712282,4.5495e+08,-7.35799e+08,107090,0.0887273,0.0525168,0.467733,0.0471239,-1.5708,0.00349066,0.0846493,-1.68329,-0.489049,307,185,0.521962,0.456332,0
14977879,4.5495e+08,-7.35799e+08,108470,0.0749073,0.164669,0.454142,0.0418879,-1.5708,0.00174533,0.0932333,-1.79544,-0.477204,310,185,0.404582,0.857079,0
15239276,4.5495e+08,-7.35799e+08,109880,0.0679169,0.217743,0.430101,0.0366519,-1.57778,0,0.0949877,-1.8555,-0.454908,311,177,0.420688,1.02471,0
15510813,4.5495e+08,-7.35799e+08,109880,0.068147,0.235024,0.430305,0.0349066,-1.56731,-0.00349066,0.0930123,-1.86231,-0.458602,310,179,0.448048,1.05559,0
15778359,4.5495e+08,-7.35799e+08,109880,0.0735578,0.274098,0.47085,0.0418879,-1.55509,0,0.0945828,-1.88916,-0.495656,310,177,0.481319,1.19483,0
16045355,4.5495e+08,-7.35799e+08,110980,0.0615334,0.339397,0.490351,0.0471239,-1.54811,-0.00174533,0.111843,-1.94748,-0.516903,311,177,0.398024,1.49893,0
16317905,4.5495e+08,-7.35799e+08,111900,0.0581422,0.353342,0.491425,0.0453786,-1.56731,-0.00174533,0.113489,-1.98063,-0.517977,310,176,0.269786,1.54122,0
16581859,4.5495e+08,-7.35799e+08,111900,0.0620877,0.371595,0.504911,0.0418879,-1.56731,0,0.106053,-1.99888,-0.529718,307,177,0.235343,1.55128,0
16849451,4.5495e+08,-7.35799e+08,112070,0.0688606,0.346136,0.513067,0.0401426,-1.56207,0.00174533,0.0975347,-1.96818,-0.536128,307,176,0.314095,1.45677,0
17114585,4.5495e+08,-7.35799e+08,112010,0.0919031,0.26511,0.513994,0.0349066,-1.57952,0,0.0692562,-1.90461,-0.538801,311,175,0.369202,1.13735,0
17388845,4.5495e+08,-7.35799e+08,112010,0.125949,0.203366,0.470015,0.020944,-1.55858,-0.00174533,0.0212479,-1.82192,-0.496567,312,175,0.688007,0.705094,0
17659665,4.5495e+08,-7.35799e+08,111290,0.149746,0.155128,0.434236,0.00698132,-1.56731,-0.00174533,-0.0165115,-1.78241,-0.460788,311,179,0.706646,0.366937,0
17924731,4.5495e+08,-7.35799e+08,111290,0.166508,0.124768,0.41404,0.00349066,-1.57429,-0.00523599,-0.0367645,-1.75903,-0.444082,312,178,0.744455,0.177885,0
18616476,4.5495e+08,-7.35799e+08,110820,0.131479,0.150082,0.291231,0.0174533,-1.57952,0.00523599,0.0122274,-1.78958,-0.310802,310,181,0.635274,0.282926,0
19232090,4.5495e+08,-7.35799e+08,109930,0.196437,0.164161,0.669801,0.0226893,-1.57778,0.0122173,-0.047495,-1.80192,-0.68239,307,176,0.696387,0.387737,0
19514550,4.5495e+08,-7.35799e+08,108870,0.216815,0.147426,0.793049,0.0226893,-1.57952,0.00523599,-0.0678734,-1.78693,-0.812619,302,173,0.75237,0.31982,0
19768228,4.5495e+08,-7.35799e+08,108660,0.216354,0.137134,0.836082,0.0261799,-1.5708,0,-0.0639214,-1.76791,-0.860889,298,175,0.771048,0.288721,0
20098170,4.5495e+08,-7.35799e+08,108660,0.22257,0.126215,0.826703,0.0122173,-1.55509,-0.00698132,-0.0841,-1.74128,-0.858492,297,174,0.921336,0.179016,0
20365174,4.5495e+08,-7.35799e+08,109060,0.209689,0.156802,0.766047,0.0174533,-1.53589,-0.00349066,-0.0659829,-1.75267,-0.794344,299,170,1.01119,0.319547,0
20624110,4.5495e+08,-7.35799e+08,109540,0.187329,0.211444,0.654894,0.020944,-1.56382,-0.00523599,-0.0401326,-1.83524,-0.684937,302,172,0.732211,0.537878,0
20936604,4.5495e+08,-7.35799e+08,111090,0.176168,0.240484,0.59975,0.0226893,-1.55858,-0.00872665,-0.0272257,-1.85904,-0.633284,301,165,0.814826,0.605962,0
21205613,4.5495e+08,-7.35799e+08,111090,0.156479,0.232765,0.509512,0.0226893,-1.5708,0,-0.00753728,-1.86354,-0.534319,304,165,0.764388,0.576121,0
21471536,4.5495e+08,-7.35799e+08,112710,0.156063,0.22344,0.502583,0.0226893,-1.56207,0,-0.00712115,-1.84549,-0.52739,300,168,0.792305,0.492951,0
21776785,4.5495e+08,-7.35799e+08,113870,0.140793,0.152643,0.51829,0.0349066,-1.56382,-0.00174533,0.0203667,-1.77644,-0.544842,303,173,0.735664,0.438739,0
22048101,4.5495e+08,-7.35799e+08,113870,0.083382,0.131177,0.535782,0.13439,-1.5708,0.00523599,0.177261,-1.76195,-0.555353,304,170,0.575211,0.816814,0
22304232,4.5495e+08,-7.35799e+08,113880,-0.00548818,0.141404,0.553148,0.237365,-1.55509,0,0.369106,-1.75647,-0.577955,303,169,0.356188,1.46406,0
22587936,4.5495e+08,-7.35799e+08,113340,-0.154208,0.111395,0.590797,0.356047,-1.5516,0.00174533,0.636508,-1.72297,-0.613858,304,179,-0.346962,2.30666,0
22850601,4.5495e+08,-7.35799e+08,113340,-0.202273,0.10671,0.618664,0.408407,-1.55509,0.00523599,0.736933,-1.72178,-0.638235,302,175,-0.595153,2.6368,0
23106965,4.5495e+08,-7.35799e+08,113060,-0.248473,0.0861904,0.633609,0.446804,-1.54811,0.00349066,0.82153,-1.69428,-0.654925,319,170,-0.909108,3.10508,0
23361358,4.5495e+08,-7.35799e+08,113060,-0.257875,0.0904508,0.63865,0.472984,-1.56382,0,0.857112,-1.71424,-0.663456,351,184,-1.5871,3.37935,0
23655227,4.5495e+08,-7.35799e+08,112750,-0.223183,0.0940734,0.64751,0.406662,-1.56731,0,0.756098,-1.72136,-0.672317,407,177,-1.93674,3.90487,0
23916000,4.5495e+08,-7.35799e+08,112480,-0.0847303,0.0687773,0.662347,0.300197,-1.56731,0.00174533,0.51118,-1.69606,-0.685409,450,175,-1.13325,3.48317,0
24192236,4.5495e+08,-7.35799e+08,112480,-0.0212086,0.0642703,0.662742,0.233874,-1.57429,0,0.381335,-1.69854,-0.687549,485,177,-0.834924,3.52846,0
24467313,4.5495e+08,-7.35799e+08,111620,0.0549457,0.0619545,0.664047,0.139626,-1.5708,0,0.210933,-1.69273,-0.688854,506,173,-0.104382,3.31564,0
24719088,4.5495e+08,-7.35799e+08,111620,0.134396,0.0640575,0.660616,-0.0471239,-1.57778,0,-0.0552674,-1.70181,-0.685423,499,174,0.772012,2.61059,0
24987574,4.5495e+08,-7.35799e+08,110740,0.26928,0.0685247,0.656947,-0.179769,-1.58825,0.00349066,-0.322796,-1.71675,-0.678263,428,180,1.3831,0.874726,0
25248861,4.5495e+08,-7.35799e+08,109980,0.339962,0.0526261,0.638287,-0.275762,-1.5708,-0.00174533,-0.489471,-1.6834,-0.66484,400,176,1.81707,-0.0434,0
25508869,4.5495e+08,-7.35799e+08,109980,0.342341,0.0546109,0.6214,-0.322886,-1.56382,0,-0.538974,-1.6784,-0.646206,354,187,1.47289,-0.530761,0
25777091,4.5495e+08,-7.35799e+08,109000,0.35189,0.0642963,0.617161,-0.342085,-1.56382,-0.00698132,-0.567722,-1.68809,-0.648949,313,179,1.29865,-1.04279,0
26057138,4.5495e+08,-7.35799e+08,109000,0.34363,0.100552,0.60566,-0.352557,-1.56382,-0.00523599,-0.569933,-1.72434,-0.635703,253,183,0.761134,-1.46204,0
26314525,4.5495e+08,-7.358e+08,108310,0.1786,0.123014,0.560105,-0.214675,-1.54985,-0.00523599,-0.267023,-1.73284,-0.590148,191,182,0.400695,-1.23688,0
26571182,4.5495e+08,-7.358e+08,108310,0.135873,0.125809,0.542375,-0.0767945,-1.56382,-0.00523599,-0.0864145,-1.7496,-0.572417,165,177,0.512562,-1.25605,0
26842928,4.5495e+08,-7.358e+08,107580,-0.0435395,0.130785,0.506763,0.0767945,-1.56382,-0.00349066,0.246587,-1.75458,-0.53506,159,171,0.658918,-0.122364,0
27084405,4.5495e+08,-7.358e+08,107580,-0.0919411,0.126317,0.505225,0.235619,-1.55334,0,0.453813,-1.73964,-0.530032,143,170,0.960644,0.242334,0
27358791,4.5495e+08,-7.358e+08,107250,-0.266557,0.0658995,0.518966,0.404916,-1.5708,0.00174533,0.797726,-1.69667,-0.542028,166,173,0.551489,1.72587,0
27624411,4.5495e+08,-7.358e+08,107050,-0.25284,0.0599242,0.533078,0.443314,-1.57778,0.00349066,0.822407,-1.69768,-0.554394,242,173,-0.104016,2.31834,0
27879010,4.5495e+08,-7.358e+08,107050,-0.233838,0.0653291,0.544723,0.443314,-1.57429,0,0.803404,-1.69959,-0.56953,296,177,-0.586244,2.67181,0
28143295,4.5495e+08,-7.358e+08,106850,-0.20359,0.0650765,0.555299,0.410152,-1.57429,0,0.739995,-1.69934,-0.580106,351,176,-0.97696,3.03619,0
28411479,4.5495e+08,-7.358e+08,106850,-0.0249739,0.0660349,0.598812,0.267035,-1.57429,0.00174533,0.418262,-1.7003,-0.621873,432,172,-0.505311,2.88451,0
28801078,4.5495e+08,-7.358e+08,106430,0.0990982,0.0695729,0.617097,-0.0471239,-1.5708,0.00174533,-0.0199693,-1.70035,-0.640158,476,163,0.748307,2.53192,0
29065517,4.5495e+08,-7.358e+08,106430,0.291003,0.0499476,0.636359,-0.18326,-1.57429,0.00174533,-0.34801,-1.68421,-0.65942,492,164,2.03841,1.30395,0
29408929,4.5495e+08,-7.358e+08,106100,0.390444,0.0702251,0.607505,-0.324631,-1.56382,-0.00523599,-0.588823,-1.69402,-0.637548,481,167,2.72213,0.351773,0
29684530,4.5495e+08,-7.358e+08,105920,0.341335,0.110154,0.580349,-0.294961,-1.5708,-0.010472,-0.510043,-1.74093,-0.615627,427,166,2.00731,0.252067,0
29937775,4.5495e+08,-7.358e+08,105920,0.2504,0.202775,0.551203,-0.223402,-1.57429,-0.00174533,-0.347549,-1.83704,-0.577755,371,173,1.12046,0.585702,0
30502376,4.5495e+08,-7.358e+08,105740,0.181079,0.430475,0.624448,-0.0715585,-1.57778,0.00174533,-0.126385,-2.06823,-0.647509,266,170,0.329723,0.773754,0
32805590,4.5495e+08,-7.358e+08,107970,0.0693447,0.397338,0.720376,0.0645772,-1.57778,0.00174533,0.121485,-2.03509,-0.743437,198,170,0.0688644,0.750806,0
33078054,4.5495e+08,-7.358e+08,107050,0.0887568,0.174785,0.74044,0.0523599,-1.58301,0.00174533,0.0898558,-1.81778,-0.763501,164,176,0.351381,-0.547823,0
33337516,4.5495e+08,-7.358e+08,107050,0.0939461,0.0505018,0.739855,0.0453786,-1.5865,0.00174533,0.0776852,-1.69698,-0.762916,195,178,0.475445,-0.74009,0
33703228,4.5495e+08,-7.358e+08,106250,0.0627411,-0.190553,0.722572,0.0977384,-1.56382,-0.00174533,0.16125,-1.43324,-0.749124,224,178,0.94999,-1.18442,0
33976123,4.5495e+08,-7.358e+08,106250,0.0574913,-0.195652,0.708809,0.10472,-1.5708,0,0.173481,-1.43512,-0.733616,287,174,0.820666,-0.409846,0
34234530,4.5495e+08,-7.358e+08,106250,0.05833,-0.163776,0.704861,0.0994838,-1.55858,0,0.167407,-1.45478,-0.729668,316,177,0.751469,0.0377264,0
34490693,4.5495e+08,-7.358e+08,106030,0.0630062,-0.119535,0.704274,0.0767945,-1.56207,0,0.140041,-1.50251,-0.729081,312,180,0.654821,0.115906,0
34746923,4.5495e+08,-7.358e+08,105960,0.0667377,-0.0845648,0.705628,0.0471239,-1.56207,0,0.106639,-1.53748,-0.730434,312,167,0.767503,0.226123,0
34999481,4.5495e+08,-7.358e+08,105960,0.0771279,-0.00377946,0.70239,0.020944,-1.57429,-0.00174533,0.0700688,-1.63049,-0.728942,330,175,0.505716,0.66645,0
35255257,4.5495e+08,-7.358e+08,105710,0.0774373,0.113597,0.688581,0.00872665,-1.53414,-0.00523599,0.0575421,-1.70772,-0.718624,331,177,0.553003,1.11784,0
35507849,4.5495e+08,-7.358e+08,105710,0.0774373,0.113597,0.688581,-0.0122173,-1.56207,-0.00523599,0.0365981,-1.73564,-0.718624,327,172,0.451839,1.05468,0
35755424,4.5495e+08,-7.358e+08,105530,0.0785172,0.273222,0.682221,-0.0296706,-1.55334,0,0.018065,-1.88654,-0.707028,315,177,0.211457,1.48806,0
36015620,4.5495e+08,-7.358e+08,105600,0.0887921,0.312839,0.69493,-0.0349066,-1.5708,0,0.00255406,-1.94361,-0.719736,305,167,0.186018,1.47645,0
36268353,4.5495e+08,-7.358e+08,105600,0.0887921,0.312839,0.69493,-0.0401426,-1.5865,0.00174533,-0.00268193,-1.95932,-0.717991,298,170,0.0590026,1.37696,0
36525366,4.5495e+08,-7.358e+08,105600,0.108934,0.369348,0.723526,-0.0401426,-1.57778,0,-0.0228242,-2.0071,-0.748333,295,179,-0.0665987,1.50254,0
36780973,4.5495e+08,-7.358e+08,105490,0.116034,0.377477,0.737052,-0.0366519,-1.59174,0.00174533,-0.0264333,-2.0292,-0.760113,289,177,-0.134955,1.44591,0
37027620,4.5495e+08,-7.358e+08,105360,0.12494,0.326653,0.761889,-0.0314159,-1.59349,0.00174533,-0.0301034,-1.98012,-0.784951,285,175,-0.0332908,1.2037,0
