Timestamp,Latitude,Longitude,Altitude,Plane Roll,Plane Pitch,Plane Yaw,Gimbal Roll,Gimbal Pitch,Gimbal Yaw,Gimbal Delta Roll,Gimbal Delta Pitch,Gimbal Delta Yaw,X in frame,Y in frame,Estimated X,Estimated Y,Estimated Z
2641506,4.54945e+08,-7.35811e+08,-253250,-0.010008,0.262538,0.45359,0.0715585,-1.55858,0.00174533,0.133769,-1.80413,-0.0213505,184,203,0.757773,-1.09914,0
3029746,4.54945e+08,-7.35811e+08,-253250,-0.0341485,0.351621,0.481433,0.0855211,-1.57429,0.00174533,0.171872,-1.90892,-0.0491937,183,203,0.710026,-0.882359,0
3297433,4.54945e+08,-7.35811e+08,-253250,-0.0341485,0.351621,0.481433,0.0907571,-1.56382,0,0.177108,-1.89845,-0.0509391,183,208,0.718742,-0.887999,0
3611390,4.54945e+08,-7.35811e+08,-253250,-0.0341485,0.351621,0.481433,0.0855211,-1.56731,-0.00174533,0.171872,-1.90194,-0.0526844,183,201,0.768074,-0.873309,0
3887260,4.54945e+08,-7.35811e+08,-253250,-0.0341485,0.351621,0.481433,0.0785398,-1.56207,-0.00174533,0.16489,-1.8967,-0.0526844,186,203,0.75918,-0.849408,0
4173490,4.54945e+08,-7.35811e+08,-253250,-0.0341485,0.351621,0.481433,0.0680678,-1.54462,0,0.154418,-1.87925,-0.0509391,187,200,0.880562,-0.841646,0
4480403,4.54945e+08,-7.35811e+08,-253250,-0.0341485,0.351621,0.481433,0.0855211,-1.54985,-0.00174533,0.171872,-1.88448,-0.0526844,193,203,0.824845,-0.766363,0
5206739,4.54945e+08,-7.35811e+08,-253250,0.00763186,0.0772572,0.47076,0.137881,-1.58301,0,0.182451,-1.64328,-0.0402658,189,192,0.800284,-1.10085,0
5518052,4.54945e+08,-7.35811e+08,-253250,-0.0443782,0.218906,0.47348,0.144862,-1.55334,-0.00174533,0.241443,-1.75526,-0.0447313,188,198,0.969805,-0.737023,0
5837473,4.54945e+08,-7.35811e+08,-253250,-0.0443782,0.218906,0.47348,0.101229,-1.5708,-0.00174533,0.197809,-1.77271,-0.0447313,184,199,0.806777,-0.817582,0
6109879,4.54945e+08,-7.35811e+08,-253250,-0.0443782,0.218906,0.47348,0.0855211,-1.55858,0,0.182101,-1.76049,-0.042986,183,205,0.791575,-0.856067,0
6469497,4.54945e+08,-7.35811e+08,-253250,-0.0192642,0.270015,0.494077,0.0663225,-1.55509,-0.00174533,0.137789,-1.80811,-0.0653288,192,202,0.757515,-0.883777,0
6735657,4.54945e+08,-7.35811e+08,-253250,0.0650052,0.108872,0.510164,0.0506145,-1.56731,-0.00174533,0.0378114,-1.65919,-0.0814153,212,206,0.52221,-1.25824,0
7002802,4.54945e+08,-7.35811e+08,-253250,0.0650052,0.108872,0.510164,0.0366519,-1.56382,0,0.0238487,-1.6557,-0.0796699,205,199,0.61239,-1.34608,0
7295944,4.54945e+08,-7.35811e+08,-253250,0.0650052,0.108872,0.510164,0.0314159,-1.55509,-0.00174533,0.0186128,-1.64697,-0.0814153,189,192,0.740659,-1.5389,0
7564385,4.54945e+08,-7.35811e+08,-253250,0.0650052,0.108872,0.510164,0.0471239,-1.5708,0.00349066,0.0343207,-1.66268,-0.0761793,191,199,0.596018,-1.50558,0
7841553,4.54945e+08,-7.35811e+08,-253250,0.110348,-0.0630921,0.509722,0.0506145,-1.56731,0.00174533,-0.00753121,-1.48722,-0.0774827,179,198,0.620398,-2.03343,0
8161233,4.54945e+08,-7.35811e+08,-253250,0.0768371,0.00762675,0.51545,0.0663225,-1.55509,0.00174533,0.0416874,-1.54572,-0.0832105,171,196,0.764958,-1.86159,0
8440638,4.54945e+08,-7.35811e+08,-253250,0.0376635,0.166014,0.526701,0.0610865,-1.5708,-0.00349066,0.075625,-1.71982,-0.0996978,166,201,0.623787,-1.56373,0
8710122,4.54945e+08,-7.35811e+08,-253250,0.0376635,0.166014,0.526701,0.0471239,-1.54462,-0.00174533,0.0616624,-1.69364,-0.0979524,170,200,0.764234,-1.53002,0
8963346,4.54945e+08,-7.35811e+08,-253250,0.0376635,0.166014,0.526701,0.0226893,-1.55858,-0.00349066,0.0372278,-1.7076,-0.0996978,175,203,0.600663,-1.48313,0
9218367,4.54945e+08,-7.35811e+08,-253250,0.031884,0.336128,0.556462,-0.00349066,-1.56207,0,0.0168273,-1.88121,-0.125968,175,203,0.529684,-1.30645,0
9484297,4.54945e+08,-7.35811e+08,-253250,0.031884,0.336128,0.556462,-0.0261799,-1.5708,-0.00174533,-0.00586194,-1.88993,-0.127713,181,197,0.508849,-1.24433,0
9735940,4.54945e+08,-7.35811e+08,-253250,0.031884,0.336128,0.556462,-0.0174533,-1.56207,0.00174533,0.00286471,-1.88121,-0.124222,175,199,0.556102,-1.31465,0
10054359,4.54945e+08,-7.35811e+08,-253250,0.031884,0.336128,0.556462,-0.015708,-1.59174,0.00174533,0.00461003,-1.91088,-0.124222,171,199,0.388627,-1.35835,0
10325084,4.54945e+08,-7.35811e+08,-253250,0.031884,0.336128,0.556462,-0.00698132,-1.57778,0.00174533,0.0133367,-1.89692,-0.124222,159,199,0.486985,-1.49157,0
10582838,4.54945e+08,-7.35811e+08,-253250,0.031884,0.336128,0.556462,-0.0122173,-1.5708,-0.00174533,0.00810069,-1.88993,-0.127713,151,207,0.419718,-1.58282,0
10849507,4.54945e+08,-7.35811e+08,-253250,0.031884,0.336128,0.556462,-0.0366519,-1.56382,0,-0.0163339,-1.88295,-0.125968,150,198,0.520403,-1.60741,0
11107244,4.54945e+08,-7.35811e+08,-253250,0.031884,0.336128,0.556462,-0.0558505,-1.55509,-0.00174533,-0.0355325,-1.87423,-0.127713,155,205,0.449976,-1.55495,0
11362763,4.54945e+08,-7.35811e+08,-253250,0.182408,-0.00304586,0.623461,-0.0558505,-1.58301,0.00174533,-0.186056,-1.56298,-0.191222,155,203,0.223411,-2.841,0
11620591,4.54945e+08,-7.35811e+08,-253250,0.182408,-0.00304586,0.623461,-0.0279253,-1.56731,0,-0.158131,-1.54727,-0.192967,155,201,0.398936,-2.8441,0
12503788,4.54945e+08,-7.35811e+08,-253250,0.182408,-0.00304586,0.623461,0.0314159,-1.5708,-0.00174533,-0.0987898,-1.55076,-0.194712,144,193,0.584629,-2.98774,0
12773685,4.54945e+08,-7.35811e+08,-253250,0.0236479,0.323582,0.568348,0.00872665,-1.53414,-0.00349066,0.0372808,-1.84074,-0.141345,138,198,0.78771,-1.65245,0
13052801,4.54945e+08,-7.35811e+08,-253250,0.0236479,0.323582,0.568348,-0.0226893,-1.55509,-0.00174533,0.00586483,-1.86168,-0.139599,135,194,0.652269,-1.70108,0
13326523,4.54945e+08,-7.35811e+08,-253250,0.0236479,0.323582,0.568348,-0.0401426,-1.56382,0.00174533,-0.0115885,-1.87041,-0.136109,141,204,0.456975,-1.64679,0
13722503,4.54945e+08,-7.35811e+08,-253250,0.0236479,0.323582,0.568348,-0.00349066,-1.58301,0,0.0250635,-1.88961,-0.137854,151,201,0.448712,-1.5118,0
13992072,4.54945e+08,-7.35811e+08,-253250,0.0236479,0.323582,0.568348,0.00698132,-1.5708,0.00174533,0.0355354,-1.87739,-0.136109,167,197,0.579893,-1.32509,0
14259048,4.54945e+08,-7.35811e+08,-253250,0.0791932,0.187514,0.681396,0.0279253,-1.59174,0.00174533,0.00093405,-1.76226,-0.249157,154,202,0.379157,-1.81249,0
14550172,4.54945e+08,-7.35811e+08,-253250,0.109015,0.0201777,0.683574,0.0663225,-1.5865,0.00349066,0.00950944,-1.58969,-0.24959,144,200,0.555188,-2.38366,0
14819906,4.54945e+08,-7.35811e+08,-253250,0.153963,-0.180544,0.651821,0.0820305,-1.57952,0,-0.0197308,-1.38199,-0.221327,146,198,0.725071,-2.96468,0
15097533,4.54945e+08,-7.35811e+08,-253250,0.153963,-0.180544,0.651821,0.0733038,-1.57429,0.00174533,-0.0284574,-1.37675,-0.219582,158,201,0.703108,-2.80648,0
15372608,4.54945e+08,-7.35811e+08,-253250,0.153963,-0.180544,0.651821,0.0663225,-1.55334,0,-0.0354388,-1.35581,-0.221327,165,195,0.890808,-2.72432,0
15643907,4.54945e+08,-7.35811e+08,-253250,0.154776,-0.165434,0.618552,0.0785398,-1.54985,0.00174533,-0.0240339,-1.36743,-0.186312,177,197,0.872466,-2.50872,0
16058587,4.54945e+08,-7.35811e+08,-253250,0.154776,-0.165434,0.618552,0.0680678,-1.54113,-0.00349066,-0.0345058,-1.3587,-0.191548,187,204,0.812128,-2.39216,0
16331700,4.54945e+08,-7.35811e+08,-253250,0.154776,-0.165434,0.618552,0.0698132,-1.56207,-0.00174533,-0.0327605,-1.37965,-0.189803,189,197,0.775906,-2.36297,0
16673005,4.54945e+08,-7.35811e+08,-253250,0.154776,-0.165434,0.618552,0.0471239,-1.56382,0,-0.0554498,-1.38139,-0.188058,183,200,0.6928,-2.44706,0
18094838,4.54945e+08,-7.35811e+08,-253250,0.0491883,0.540368,0.727434,0.546288,-1.57429,0,0.549302,-2.09766,-0.29694,185,195,1.12897,-0.126931,0
18367439,4.54945e+08,-7.35811e+08,-253250,-0.45232,0.389328,0.698728,0.560251,-1.56382,0.00174533,1.06477,-1.93615,-0.266488,189,207,0.583077,3.2314,0
18623689,4.54945e+08,-7.35811e+08,-253250,-0.430265,0.38616,0.704612,0.499164,-1.5708,0,0.981632,-1.93997,-0.274118,184,197,0.655093,3.02071,0
18881650,4.54945e+08,-7.35811e+08,-253250,-0.305565,0.368837,0.734719,0.429351,-1.56382,-0.00349066,0.787118,-1.91566,-0.307716,183,205,0.730083,1.81938,0
19145228,4.54945e+08,-7.35811e+08,-253250,-0.305565,0.368837,0.734719,0.333358,-1.5708,-0.00174533,0.691125,-1.92264,-0.30597,166,199,0.796928,1.57817,0
19417454,4.54945e+08,-7.35811e+08,-253250,0.0421902,0.389136,0.798952,0.102974,-1.56207,-0.00523599,0.112986,-1.93421,-0.373694,419,197,0.253574,2.1604,0
19675968,4.54945e+08,-7.35811e+08,-253250,0.145626,0.366409,0.82697,-0.0471239,-1.5708,0,-0.140548,-1.92022,-0.396476,405,195,0.759587,1.27431,0
20050624,4.54945e+08,-7.35811e+08,-253250,0.320746,0.347317,0.8556,-0.303687,-1.5708,-0.00523599,-0.572231,-1.90112,-0.430342,374,201,1.24275,-0.277495,0
20316219,4.54945e+08,-7.35811e+08,-253250,0.320746,0.347317,0.8556,-0.3735,-1.5708,-0.00174533,-0.642044,-1.90112,-0.426851,319,199,0.852151,-0.857307,0
20665731,4.54945e+08,-7.35811e+08,-253250,0.320746,0.347317,0.8556,-0.376991,-1.5708,-0.00523599,-0.645535,-1.90112,-0.430342,261,200,0.385574,-1.37751,0
20936169,4.54945e+08,-7.35811e+08,-253250,0.270458,0.354048,0.878177,-0.315905,-1.5708,-0.00349066,-0.53416,-1.90785,-0.451174,173,198,-0.169649,-1.9379,0
21286948,4.54945e+08,-7.35811e+08,-253250,0.270458,0.354048,0.878177,-0.0907571,-1.56382,0,-0.309013,-1.90087,-0.447683,103,200,-0.0398063,-2.81962,0
21555581,4.54945e+08,-7.35811e+08,-253250,-0.0456804,0.311847,0.845108,0.0610865,-1.56731,0.00349066,0.158969,-1.86216,-0.411124,9,187,0.903213,-1.9778,0
22171588,4.54945e+08,-7.35811e+08,-253250,-0.0456804,0.311847,0.845108,0.301942,-1.56731,-0.00174533,0.399824,-1.86216,-0.41636,4,186,1.62985,-1.64734,0
22508540,4.54945e+08,-7.35811e+08,-253250,-0.223366,0.262203,0.874742,0.382227,-1.54985,0.00174533,0.657795,-1.79507,-0.442502,47,188,1.65207,0.131363,0
22777772,4.54945e+08,-7.35811e+08,-253250,-0.193407,0.251816,0.886337,0.349066,-1.55509,0,0.594675,-1.78991,-0.455843,166,195,0.788952,0.754982,0
23052782,4.54945e+08,-7.35811e+08,-253250,-0.0141876,0.235343,0.919518,0.219911,-1.55509,0,0.286301,-1.77344,-0.489024,216,205,0.538246,-0.066329,0
23345839,4.54945e+08,-7.35811e+08,-253250,-0.0141876,0.235343,0.919518,0.0977384,-1.56207,-0.00174533,0.164128,-1.78042,-0.49077,278,207,0.219592,0.553823,0
23694686,4.54945e+08,-7.35811e+08,-253250,0.26125,0.324242,0.968413,-0.191986,-1.55509,-0.00698132,-0.401034,-1.86234,-0.5449,306,206,0.778751,-0.357039,0
23966565,4.54945e+08,-7.35811e+08,-253250,0.337059,0.331281,0.998032,-0.298451,-1.55334,-0.00523599,-0.583308,-1.86763,-0.572774,320,209,1.01662,-0.539906,0
24305947,4.54945e+08,-7.35811e+08,-253250,0.356748,0.328173,1.00501,-0.342085,-1.56032,-0.00174533,-0.64663,-1.87151,-0.576258,275,208,0.682121,-1.07285,0
24576167,4.54945e+08,-7.35811e+08,-253250,0.223324,0.297334,0.968642,-0.286234,-1.56382,-0.00174533,-0.457356,-1.84416,-0.539893,230,210,0.169691,-1.04796,0
24920673,4.54945e+08,-7.35811e+08,-253250,0.0719301,0.26843,0.933289,-0.0994838,-1.55509,0,-0.119212,-1.80653,-0.502795,162,202,0.23492,-1.21227,0
25186468,4.54945e+08,-7.35811e+08,-253250,0.00292324,0.223437,0.933473,0.0488692,-1.57429,0.00174533,0.098148,-1.78073,-0.501234,40,203,0.505258,-2.17839,0
25459161,4.54945e+08,-7.35811e+08,-253250,0.0242216,0.223104,0.894406,0.0959931,-1.57429,-0.00174533,0.123974,-1.7804,-0.465657,7,199,0.739899,-2.6631,0
25746222,4.54945e+08,-7.35811e+08,-253250,0.0464278,0.219501,0.840048,0.0453786,-1.5865,0,0.0511528,-1.78902,-0.409554,21,205,0.43631,-2.80629,0
26040415,4.54945e+08,-7.35811e+08,-253250,0.0508605,0.206338,0.772226,0.00872665,-1.5708,-0.00698132,0.0100681,-1.76014,-0.348713,63,202,0.436999,-2.51836,0
26478007,4.54945e+08,-7.35811e+08,-253250,0.0539625,0.15171,0.744188,0.115192,-1.55858,-0.364774,0.113431,-1.6933,-0.678468,169,206,0.0891712,-1.2647,0
26815649,4.54945e+08,-7.35811e+08,-253250,0.0891196,0.163818,0.846006,-0.0122173,-1.54811,-0.10821,-0.0491349,-1.69493,-0.523722,203,218,0.235451,-1.11819,0
27078666,4.54945e+08,-7.35811e+08,-253250,0.114532,0.171981,1.04859,-0.0349066,-1.58301,-0.0139626,-0.0972363,-1.738,-0.632058,192,210,0.190679,-1.22601,0
27393676,4.54945e+08,-7.35811e+08,-253250,0.118803,0.146792,1.21162,-0.00698132,-1.5865,0.00872665,-0.073582,-1.71631,-0.772398,173,211,0.219547,-1.41831,0
27660148,4.54945e+08,-7.35811e+08,-253250,0.116467,0.128145,1.30954,0.00872665,-1.57429,0.00872665,-0.055538,-1.68544,-0.870315,178,207,0.36806,-1.35089,0
27991077,4.54945e+08,-7.35811e+08,-253250,0.131345,0.143327,1.31939,-0.015708,-1.57778,0,-0.0948512,-1.70411,-0.888895,229,174,0.740807,-0.785087,0
28261107,4.54945e+08,-7.35811e+08,-253250,0.131345,0.143327,1.31939,-0.00698132,-1.56731,-0.010472,-0.0861246,-1.69364,-0.899367,160,205,0.355953,-1.53692,0
28509741,4.54945e+08,-7.35811e+08,-253250,0.109026,0.152263,1.14913,-0.00698132,-1.56731,-0.00872665,-0.0638055,-1.70258,-0.727358,155,209,0.297462,-1.60367,0
28862921,4.54945e+08,-7.35811e+08,-253250,0.100258,0.105823,0.882133,-0.0122173,-1.5865,-0.00174533,-0.0602736,-1.67534,-0.453384,164,209,0.272991,-1.83259,0
29205709,4.54945e+08,-7.35811e+08,-253250,0.100258,0.105823,0.882133,-0.020944,-1.57429,-0.00349066,-0.0690003,-1.66312,-0.455129,170,207,0.353882,-1.76633,0
29541617,4.54945e+08,-7.35811e+08,-253250,0.100258,0.105823,0.882133,-0.0349066,-1.56382,0,-0.0829629,-1.65265,-0.451639,160,206,0.398173,-1.89133,0
29807321,4.54945e+08,-7.35811e+08,-253250,0.108525,0.105985,0.921396,-0.0349066,-1.53414,0.00523599,-0.09123,-1.62314,-0.485666,163,203,0.626219,-1.88627,0
30114766,4.54945e+08,-7.35811e+08,-253250,0.10024,0.120946,1.04944,-0.0314159,-1.55334,0.00349066,-0.0794534,-1.6573,-0.615454,157,205,0.453911,-1.75783,0
30379430,4.54945e+08,-7.35811e+08,-253250,0.0854894,0.118122,1.10082,-0.00698132,-1.56731,0.00698132,-0.0402687,-1.66844,-0.66334,160,201,0.445939,-1.61162,0
30651001,4.54945e+08,-7.35811e+08,-253250,0.0741692,0.101851,1.17685,0.0174533,-1.56382,0.00174533,-0.00451391,-1.64868,-0.744612,152,191,0.600743,-1.65427,0
30927759,4.54945e+08,-7.35811e+08,-253250,0.0743556,0.0977102,1.19772,0.0349066,-1.5865,0.00349066,0.012753,-1.66722,-0.763738,150,196,0.450212,-1.67282,0
31262699,4.54945e+08,-7.35811e+08,-253250,0.0926792,0.110523,1.20543,-0.00698132,-1.57778,0,-0.0474585,-1.67131,-0.774932,148,201,0.364203,-1.74666,0
31530808,4.54945e+08,-7.35811e+08,-253250,0.0977562,0.120403,1.1264,-0.0122173,-1.57429,-0.00698132,-0.0577715,-1.6777,-0.702891,155,204,0.34216,-1.70178,0
31786564,4.54945e+08,-7.35811e+08,-253250,0.0842594,0.119903,1.05928,-0.00698132,-1.57429,-0.00349066,-0.0390387,-1.6772,-0.632275,166,200,0.406899,-1.55412,0
32042848,4.54945e+08,-7.35811e+08,-253250,0.07336,0.120902,1.01597,0.00698132,-1.5865,-0.00872665,-0.0141766,-1.69042,-0.594199,172,197,0.383063,-1.4417,0
32518818,4.54945e+08,-7.35811e+08,-253250,0.0898867,0.128761,0.864536,-0.0226893,-1.56382,-0.00174533,-0.0603739,-1.67559,-0.435787,174,205,0.420561,-1.61269,0
32787121,4.54945e+08,-7.35811e+08,-253250,0.0926173,0.163321,0.900547,-0.0663225,-1.56207,-0.00174533,-0.106738,-1.7084,-0.471798,159,197,0.402958,-1.6982,0
33054467,4.54945e+08,-7.35811e+08,-253250,0.0664101,0.249878,0.941305,-0.0750492,-1.55509,0,-0.0892572,-1.78798,-0.510811,159,187,0.452791,-1.26468,0
33303828,4.54945e+08,-7.35811e+08,-253250,0.0664101,0.249878,0.941305,-0.0610865,-1.55858,0,-0.0752946,-1.79147,-0.510811,164,205,0.256679,-1.18941,0
33553305,4.54945e+08,-7.35811e+08,-253250,-0.0139892,0.405942,0.972525,-0.020944,-1.5708,0.00174533,0.0452473,-1.95975,-0.540285,163,190,0.228631,-0.259966,0
34022083,4.54945e+08,-7.35811e+08,-253250,-0.018595,0.328221,1.00146,0.0314159,-1.56207,0.00174533,0.102213,-1.8733,-0.569219,143,186,0.447409,-0.573269,0
